{"_id":"ro:rondonia:altaflorestadoeste","uf":"ro","nome_estado":"rondônia","codigo_ibge":"1100015","nome_municipio":"alta floresta d'oeste","localizacao":{"coordinates":[{"$numberDouble":"-11.9283"},{"$numberDouble":"-61.9953"}],"type":"Point"}}
{"_id":"ro:rondonia:ariquemes","uf":"ro","nome_estado":"rondônia","codigo_ibge":"1100023","nome_municipio":"ariquemes","latitude":"-9.90571","longitude":"-63.0325","localizacao":{"coordinates":[{"$numberDouble":"-9.90571"},{"$numberDouble":"-63.0325"}],"type":"Point"}}
{"_id":"ro:rondonia:cabixi","uf":"ro","nome_estado":"rondônia","codigo_ibge":"1100031","nome_municipio":"cabixi","latitude":"-13.4945","longitude":"-60.552","localizacao":{"coordinates":[{"$numberDouble":"-13.4945"},{"$numberDouble":"-60.552"}],"type":"Point"}}
{"_id":"ro:rondonia:cacoal","uf":"ro","nome_estado":"rondônia","codigo_ibge":"1100049","nome_municipio":"cacoal","latitude":"-11.4343","longitude":"-61.4562","localizacao":{"coordinates":[{"$numberDouble":"-11.4343"},{"$numberDouble":"-61.4562"}],"type":"Point"}}
{"_id":"ro:rondonia:cerejeiras","uf":"ro","nome_estado":"rondônia","codigo_ibge":"1100056","nome_municipio":"cerejeiras","latitude":"-13.187","longitude":"-60.8168","localizacao":{"coordinates":[{"$numberDouble":"-13.187"},{"$numberDouble":"-60.8168"}],"type":"Point"}}
{"_id":"ro:rondonia:coloradodooeste","uf":"ro","nome_estado":"rondônia","codigo_ibge":"1100064","nome_municipio":"colorado do oeste","latitude":"-13.1174","longitude":"-60.5454","localizacao":{"coordinates":[{"$numberDouble":"-13.1174"},{"$numberDouble":"-60.5454"}],"type":"Point"}}
{"_id":"ro:rondonia:corumbiara","uf":"ro","nome_estado":"rondônia","codigo_ibge":"1100072","nome_municipio":"corumbiara","latitude":"-12.9551","longitude":"-60.8947","localizacao":{"coordinates":[{"$numberDouble":"-12.9551"},{"$numberDouble":"-60.8947"}],"type":"Point"}}
{"_id":"ro:rondonia:costamarques","uf":"ro","nome_estado":"rondônia","codigo_ibge":"1100080","nome_municipio":"costa marques","latitude":"-12.4367","longitude":"-64.228","localizacao":{"coordinates":[{"$numberDouble":"-12.4367"},{"$numberDouble":"-64.228"}],"type":"Point"}}
{"_id":"ro:rondonia:espigaodooeste","uf":"ro","nome_estado":"rondônia","codigo_ibge":"1100098","nome_municipio":"espigão do oeste","latitude":"-11.5266","longitude":"-61.0252","localizacao":{"coordinates":[{"$numberDouble":"-11.5266"},{"$numberDouble":"-61.0252"}],"type":"Point"}}
{"_id":"ro:rondonia:guajara-mirim","uf":"ro","nome_estado":"rondônia","codigo_ibge":"1100106","nome_municipio":"guajará-mirim","latitude":"-10.7889","longitude":"-65.3296","localizacao":{"coordinates":[{"$numberDouble":"-10.7889"},{"$numberDouble":"-65.3296"}],"type":"Point"}}
{"_id":"ro:rondonia:jaru","uf":"ro","nome_estado":"rondônia","codigo_ibge":"1100114","nome_municipio":"jaru","latitude":"-10.4318","longitude":"-62.4788","localizacao":{"coordinates":[{"$numberDouble":"-10.4318"},{"$numberDouble":"-62.4788"}],"type":"Point"}}
{"_id":"ro:rondonia:ji-parana","uf":"ro","nome_estado":"rondônia","codigo_ibge":"1100122","nome_municipio":"ji-paraná","latitude":"-10.8777","longitude":"-61.9322","localizacao":{"coordinates":[{"$numberDouble":"-10.8777"},{"$numberDouble":"-61.9322"}],"type":"Point"}}
{"_id":"ro:rondonia:machadinhodoeste","uf":"ro","nome_estado":"rondônia","codigo_ibge":"1100130","nome_municipio":"machadinho d'oeste","latitude":"-9.44363","longitude":"-61.9818","localizacao":{"coordinates":[{"$numberDouble":"-9.44363"},{"$numberDouble":"-61.9818"}],"type":"Point"}}
{"_id":"ro:rondonia:novabrasilandiadoeste","uf":"ro","nome_estado":"rondônia","codigo_ibge":"1100148","nome_municipio":"nova brasilândia d'oeste","latitude":"-11.7247","longitude":"-62.3127","localizacao":{"coordinates":[{"$numberDouble":"-11.7247"},{"$numberDouble":"-62.3127"}],"type":"Point"}}
{"_id":"ro:rondonia:ouropretodooeste","uf":"ro","nome_estado":"rondônia","codigo_ibge":"1100155","nome_municipio":"ouro preto do oeste","latitude":"-10.7167","longitude":"-62.2565","localizacao":{"coordinates":[{"$numberDouble":"-10.7167"},{"$numberDouble":"-62.2565"}],"type":"Point"}}
{"_id":"ro:rondonia:pimentabueno","uf":"ro","nome_estado":"rondônia","codigo_ibge":"1100189","nome_municipio":"pimenta bueno","latitude":"-11.672","longitude":"-61.198","localizacao":{"coordinates":[{"$numberDouble":"-11.672"},{"$numberDouble":"-61.198"}],"type":"Point"}}
{"_id":"ro:rondonia:portovelho","uf":"ro","nome_estado":"rondônia","codigo_ibge":"1100205","nome_municipio":"porto velho","latitude":"-8.76077","longitude":"-63.8999","localizacao":{"coordinates":[{"$numberDouble":"-8.76077"},{"$numberDouble":"-63.8999"}],"type":"Point"}}
{"_id":"ro:rondonia:presidentemedici","uf":"ro","nome_estado":"rondônia","codigo_ibge":"1100254","nome_municipio":"presidente médici","latitude":"-11.169","longitude":"-61.8986","localizacao":{"coordinates":[{"$numberDouble":"-11.169"},{"$numberDouble":"-61.8986"}],"type":"Point"}}
{"_id":"ro:rondonia:riocrespo","uf":"ro","nome_estado":"rondônia","codigo_ibge":"1100262","nome_municipio":"rio crespo","latitude":"-9.69965","longitude":"-62.9011","localizacao":{"coordinates":[{"$numberDouble":"-9.69965"},{"$numberDouble":"-62.9011"}],"type":"Point"}}
{"_id":"ro:rondonia:rolimdemoura","uf":"ro","nome_estado":"rondônia","codigo_ibge":"1100288","nome_municipio":"rolim de moura","latitude":"-11.7271","longitude":"-61.7714","localizacao":{"coordinates":[{"$numberDouble":"-11.7271"},{"$numberDouble":"-61.7714"}],"type":"Point"}}
{"_id":"ro:rondonia:santaluziadoeste","uf":"ro","nome_estado":"rondônia","codigo_ibge":"1100296","nome_municipio":"santa luzia d'oeste","latitude":"-11.9074","longitude":"-61.7777","localizacao":{"coordinates":[{"$numberDouble":"-11.9074"},{"$numberDouble":"-61.7777"}],"type":"Point"}}
{"_id":"ro:rondonia:vilhena","uf":"ro","nome_estado":"rondônia","codigo_ibge":"1100304","nome_municipio":"vilhena","latitude":"-12.7502","longitude":"-60.1488","localizacao":{"coordinates":[{"$numberDouble":"-12.7502"},{"$numberDouble":"-60.1488"}],"type":"Point"}}
{"_id":"ro:rondonia:saomigueldoguapore","uf":"ro","nome_estado":"rondônia","codigo_ibge":"1100320","nome_municipio":"são miguel do guaporé","latitude":"-11.6953","longitude":"-62.7192","localizacao":{"coordinates":[{"$numberDouble":"-11.6953"},{"$numberDouble":"-62.7192"}],"type":"Point"}}
{"_id":"ro:rondonia:novamamore","uf":"ro","nome_estado":"rondônia","codigo_ibge":"1100338","nome_municipio":"nova mamoré","latitude":"-10.4077","longitude":"-65.3346","localizacao":{"coordinates":[{"$numberDouble":"-10.4077"},{"$numberDouble":"-65.3346"}],"type":"Point"}}
{"_id":"ro:rondonia:alvoradadoeste","uf":"ro","nome_estado":"rondônia","codigo_ibge":"1100346","nome_municipio":"alvorada d'oeste","latitude":"-11.3463","longitude":"-62.2847","localizacao":{"coordinates":[{"$numberDouble":"-11.3463"},{"$numberDouble":"-62.2847"}],"type":"Point"}}
{"_id":"ro:rondonia:altoalegredosparecis","uf":"ro","nome_estado":"rondônia","codigo_ibge":"1100379","nome_municipio":"alto alegre dos parecis","latitude":"-12.132","longitude":"-61.835","localizacao":{"coordinates":[{"$numberDouble":"-12.132"},{"$numberDouble":"-61.835"}],"type":"Point"}}
{"_id":"ro:rondonia:altoparaiso","uf":"ro","nome_estado":"rondônia","codigo_ibge":"1100403","nome_municipio":"alto paraíso","latitude":"-9.71429","longitude":"-63.3188","localizacao":{"coordinates":[{"$numberDouble":"-9.71429"},{"$numberDouble":"-63.3188"}],"type":"Point"}}
{"_id":"ro:rondonia:buritis","uf":"ro","nome_estado":"rondônia","codigo_ibge":"1100452","nome_municipio":"buritis","latitude":"-10.1943","longitude":"-63.8324","localizacao":{"coordinates":[{"$numberDouble":"-10.1943"},{"$numberDouble":"-63.8324"}],"type":"Point"}}
{"_id":"ro:rondonia:novohorizontedooeste","uf":"ro","nome_estado":"rondônia","codigo_ibge":"1100502","nome_municipio":"novo horizonte do oeste","latitude":"-11.6961","longitude":"-61.9951","localizacao":{"coordinates":[{"$numberDouble":"-11.6961"},{"$numberDouble":"-61.9951"}],"type":"Point"}}
{"_id":"ro:rondonia:cacaulandia","uf":"ro","nome_estado":"rondônia","codigo_ibge":"1100601","nome_municipio":"cacaulândia","latitude":"-10.349","longitude":"-62.9043","localizacao":{"coordinates":[{"$numberDouble":"-10.349"},{"$numberDouble":"-62.9043"}],"type":"Point"}}
{"_id":"ro:rondonia:camponovoderondonia","uf":"ro","nome_estado":"rondônia","codigo_ibge":"1100700","nome_municipio":"campo novo de rondônia","latitude":"-10.5712","longitude":"-63.6266","localizacao":{"coordinates":[{"$numberDouble":"-10.5712"},{"$numberDouble":"-63.6266"}],"type":"Point"}}
{"_id":"ro:rondonia:candeiasdojamari","uf":"ro","nome_estado":"rondônia","codigo_ibge":"1100809","nome_municipio":"candeias do jamari","latitude":"-8.7907","longitude":"-63.7005","localizacao":{"coordinates":[{"$numberDouble":"-8.7907"},{"$numberDouble":"-63.7005"}],"type":"Point"}}
{"_id":"ro:rondonia:castanheiras","uf":"ro","nome_estado":"rondônia","codigo_ibge":"1100908","nome_municipio":"castanheiras","latitude":"-11.4253","longitude":"-61.9482","localizacao":{"coordinates":[{"$numberDouble":"-11.4253"},{"$numberDouble":"-61.9482"}],"type":"Point"}}
{"_id":"ro:rondonia:chupinguaia","uf":"ro","nome_estado":"rondônia","codigo_ibge":"1100924","nome_municipio":"chupinguaia","latitude":"-12.5611","longitude":"-60.8877","localizacao":{"coordinates":[{"$numberDouble":"-12.5611"},{"$numberDouble":"-60.8877"}],"type":"Point"}}
{"_id":"ro:rondonia:cujubim","uf":"ro","nome_estado":"rondônia","codigo_ibge":"1100940","nome_municipio":"cujubim","latitude":"-9.36065","longitude":"-62.5846","localizacao":{"coordinates":[{"$numberDouble":"-9.36065"},{"$numberDouble":"-62.5846"}],"type":"Point"}}
{"_id":"ro:rondonia:governadorjorgeteixeira","uf":"ro","nome_estado":"rondônia","codigo_ibge":"1101005","nome_municipio":"governador jorge teixeira","latitude":"-10.61","longitude":"-62.7371","localizacao":{"coordinates":[{"$numberDouble":"-10.61"},{"$numberDouble":"-62.7371"}],"type":"Point"}}
{"_id":"ro:rondonia:itapuadooeste","uf":"ro","nome_estado":"rondônia","codigo_ibge":"1101104","nome_municipio":"itapuã do oeste","latitude":"-9.19687","longitude":"-63.1809","localizacao":{"coordinates":[{"$numberDouble":"-9.19687"},{"$numberDouble":"-63.1809"}],"type":"Point"}}
{"_id":"ro:rondonia:ministroandreazza","uf":"ro","nome_estado":"rondônia","codigo_ibge":"1101203","nome_municipio":"ministro andreazza","latitude":"-11.196","longitude":"-61.5174","localizacao":{"coordinates":[{"$numberDouble":"-11.196"},{"$numberDouble":"-61.5174"}],"type":"Point"}}
{"_id":"ro:rondonia:mirantedaserra","uf":"ro","nome_estado":"rondônia","codigo_ibge":"1101302","nome_municipio":"mirante da serra","latitude":"-11.029","longitude":"-62.6696","localizacao":{"coordinates":[{"$numberDouble":"-11.029"},{"$numberDouble":"-62.6696"}],"type":"Point"}}
{"_id":"ro:rondonia:montenegro","uf":"ro","nome_estado":"rondônia","codigo_ibge":"1101401","nome_municipio":"monte negro","latitude":"-10.2458","longitude":"-63.29","localizacao":{"coordinates":[{"$numberDouble":"-10.2458"},{"$numberDouble":"-63.29"}],"type":"Point"}}
{"_id":"ro:rondonia:novauniao","uf":"ro","nome_estado":"rondônia","codigo_ibge":"1101435","nome_municipio":"nova união","latitude":"-10.9068","longitude":"-62.5564","localizacao":{"coordinates":[{"$numberDouble":"-10.9068"},{"$numberDouble":"-62.5564"}],"type":"Point"}}
{"_id":"ro:rondonia:parecis","uf":"ro","nome_estado":"rondônia","codigo_ibge":"1101450","nome_municipio":"parecis","latitude":"-12.1754","longitude":"-61.6032","localizacao":{"coordinates":[{"$numberDouble":"-12.1754"},{"$numberDouble":"-61.6032"}],"type":"Point"}}
{"_id":"ro:rondonia:pimenteirasdooeste","uf":"ro","nome_estado":"rondônia","codigo_ibge":"1101468","nome_municipio":"pimenteiras do oeste","latitude":"-13.4823","longitude":"-61.0471","localizacao":{"coordinates":[{"$numberDouble":"-13.4823"},{"$numberDouble":"-61.0471"}],"type":"Point"}}
{"_id":"ro:rondonia:primaveraderondonia","uf":"ro","nome_estado":"rondônia","codigo_ibge":"1101476","nome_municipio":"primavera de rondônia","latitude":"-11.8295","longitude":"-61.3153","localizacao":{"coordinates":[{"$numberDouble":"-11.8295"},{"$numberDouble":"-61.3153"}],"type":"Point"}}
{"_id":"ro:rondonia:saofelipedoeste","uf":"ro","nome_estado":"rondônia","codigo_ibge":"1101484","nome_municipio":"são felipe d'oeste","latitude":"-11.9023","longitude":"-61.5026","localizacao":{"coordinates":[{"$numberDouble":"-11.9023"},{"$numberDouble":"-61.5026"}],"type":"Point"}}
{"_id":"ro:rondonia:saofranciscodoguapore","uf":"ro","nome_estado":"rondônia","codigo_ibge":"1101492","nome_municipio":"são francisco do guaporé","latitude":"-12.052","longitude":"-63.568","localizacao":{"coordinates":[{"$numberDouble":"-12.052"},{"$numberDouble":"-63.568"}],"type":"Point"}}
{"_id":"ro:rondonia:seringueiras","uf":"ro","nome_estado":"rondônia","codigo_ibge":"1101500","nome_municipio":"seringueiras","latitude":"-11.8055","longitude":"-63.0182","localizacao":{"coordinates":[{"$numberDouble":"-11.8055"},{"$numberDouble":"-63.0182"}],"type":"Point"}}
{"_id":"ro:rondonia:teixeiropolis","uf":"ro","nome_estado":"rondônia","codigo_ibge":"1101559","nome_municipio":"teixeirópolis","latitude":"-10.9056","longitude":"-62.242","localizacao":{"coordinates":[{"$numberDouble":"-10.9056"},{"$numberDouble":"-62.242"}],"type":"Point"}}
{"_id":"ro:rondonia:theobroma","uf":"ro","nome_estado":"rondônia","codigo_ibge":"1101609","nome_municipio":"theobroma","latitude":"-10.2483","longitude":"-62.3538","localizacao":{"coordinates":[{"$numberDouble":"-10.2483"},{"$numberDouble":"-62.3538"}],"type":"Point"}}
{"_id":"ro:rondonia:urupa","uf":"ro","nome_estado":"rondônia","codigo_ibge":"1101708","nome_municipio":"urupá","latitude":"-11.1261","longitude":"-62.3639","localizacao":{"coordinates":[{"$numberDouble":"-11.1261"},{"$numberDouble":"-62.3639"}],"type":"Point"}}
{"_id":"ro:rondonia:valedoanari","uf":"ro","nome_estado":"rondônia","codigo_ibge":"1101757","nome_municipio":"vale do anari","latitude":"-9.86215","longitude":"-62.1876","localizacao":{"coordinates":[{"$numberDouble":"-9.86215"},{"$numberDouble":"-62.1876"}],"type":"Point"}}
{"_id":"ro:rondonia:valedoparaiso","uf":"ro","nome_estado":"rondônia","codigo_ibge":"1101807","nome_municipio":"vale do paraíso","latitude":"-10.4465","longitude":"-62.1352","localizacao":{"coordinates":[{"$numberDouble":"-10.4465"},{"$numberDouble":"-62.1352"}],"type":"Point"}}
{"_id":"ac:acre:acrelandia","uf":"ac","nome_estado":"acre","codigo_ibge":"1200013","nome_municipio":"acrelândia","latitude":"-9.82581","longitude":"-66.8972","localizacao":{"coordinates":[{"$numberDouble":"-9.82581"},{"$numberDouble":"-66.8972"}],"type":"Point"}}
{"_id":"ac:acre:assisbrasil","uf":"ac","nome_estado":"acre","codigo_ibge":"1200054","nome_municipio":"assis brasil","latitude":"-10.9298","longitude":"-69.5738","localizacao":{"coordinates":[{"$numberDouble":"-10.9298"},{"$numberDouble":"-69.5738"}],"type":"Point"}}
{"_id":"ac:acre:brasileia","uf":"ac","nome_estado":"acre","codigo_ibge":"1200104","nome_municipio":"brasiléia","latitude":"-10.995","longitude":"-68.7497","localizacao":{"coordinates":[{"$numberDouble":"-10.995"},{"$numberDouble":"-68.7497"}],"type":"Point"}}
{"_id":"ac:acre:bujari","uf":"ac","nome_estado":"acre","codigo_ibge":"1200138","nome_municipio":"bujari","latitude":"-9.81528","longitude":"-67.955","localizacao":{"coordinates":[{"$numberDouble":"-9.81528"},{"$numberDouble":"-67.955"}],"type":"Point"}}
{"_id":"ac:acre:capixaba","uf":"ac","nome_estado":"acre","codigo_ibge":"1200179","nome_municipio":"capixaba","latitude":"-10.566","longitude":"-67.686","localizacao":{"coordinates":[{"$numberDouble":"-10.566"},{"$numberDouble":"-67.686"}],"type":"Point"}}
{"_id":"ac:acre:cruzeirodosul","uf":"ac","nome_estado":"acre","codigo_ibge":"1200203","nome_municipio":"cruzeiro do sul","latitude":"-7.62762","longitude":"-72.6756","localizacao":{"coordinates":[{"$numberDouble":"-7.62762"},{"$numberDouble":"-72.6756"}],"type":"Point"}}
{"_id":"ac:acre:epitaciolandia","uf":"ac","nome_estado":"acre","codigo_ibge":"1200252","nome_municipio":"epitaciolândia","latitude":"-11.0188","longitude":"-68.7341","localizacao":{"coordinates":[{"$numberDouble":"-11.0188"},{"$numberDouble":"-68.7341"}],"type":"Point"}}
{"_id":"ac:acre:feijo","uf":"ac","nome_estado":"acre","codigo_ibge":"1200302","nome_municipio":"feijó","latitude":"-8.17054","longitude":"-70.351","localizacao":{"coordinates":[{"$numberDouble":"-8.17054"},{"$numberDouble":"-70.351"}],"type":"Point"}}
{"_id":"ac:acre:jordao","uf":"ac","nome_estado":"acre","codigo_ibge":"1200328","nome_municipio":"jordão","latitude":"-9.43091","longitude":"-71.8974","localizacao":{"coordinates":[{"$numberDouble":"-9.43091"},{"$numberDouble":"-71.8974"}],"type":"Point"}}
{"_id":"ac:acre:manciolima","uf":"ac","nome_estado":"acre","codigo_ibge":"1200336","nome_municipio":"mâncio lima","latitude":"-7.61657","longitude":"-72.8997","localizacao":{"coordinates":[{"$numberDouble":"-7.61657"},{"$numberDouble":"-72.8997"}],"type":"Point"}}
{"_id":"ac:acre:manoelurbano","uf":"ac","nome_estado":"acre","codigo_ibge":"1200344","nome_municipio":"manoel urbano","latitude":"-8.83291","longitude":"-69.2679","localizacao":{"coordinates":[{"$numberDouble":"-8.83291"},{"$numberDouble":"-69.2679"}],"type":"Point"}}
{"_id":"ac:acre:marechalthaumaturgo","uf":"ac","nome_estado":"acre","codigo_ibge":"1200351","nome_municipio":"marechal thaumaturgo","latitude":"-8.93898","longitude":"-72.7997","localizacao":{"coordinates":[{"$numberDouble":"-8.93898"},{"$numberDouble":"-72.7997"}],"type":"Point"}}
{"_id":"ac:acre:placidodecastro","uf":"ac","nome_estado":"acre","codigo_ibge":"1200385","nome_municipio":"plácido de castro","latitude":"-10.2806","longitude":"-67.1371","localizacao":{"coordinates":[{"$numberDouble":"-10.2806"},{"$numberDouble":"-67.1371"}],"type":"Point"}}
{"_id":"ac:acre:portowalter","uf":"ac","nome_estado":"acre","codigo_ibge":"1200393","nome_municipio":"porto walter","latitude":"-8.26323","longitude":"-72.7537","localizacao":{"coordinates":[{"$numberDouble":"-8.26323"},{"$numberDouble":"-72.7537"}],"type":"Point"}}
{"_id":"ac:acre:riobranco","uf":"ac","nome_estado":"acre","codigo_ibge":"1200401","nome_municipio":"rio branco","latitude":"-9.97499","longitude":"-67.8243","localizacao":{"coordinates":[{"$numberDouble":"-9.97499"},{"$numberDouble":"-67.8243"}],"type":"Point"}}
{"_id":"ac:acre:rodriguesalves","uf":"ac","nome_estado":"acre","codigo_ibge":"1200427","nome_municipio":"rodrigues alves","latitude":"-7.73864","longitude":"-72.661","localizacao":{"coordinates":[{"$numberDouble":"-7.73864"},{"$numberDouble":"-72.661"}],"type":"Point"}}
{"_id":"ac:acre:santarosadopurus","uf":"ac","nome_estado":"acre","codigo_ibge":"1200435","nome_municipio":"santa rosa do purus","latitude":"-9.44652","longitude":"-70.4902","localizacao":{"coordinates":[{"$numberDouble":"-9.44652"},{"$numberDouble":"-70.4902"}],"type":"Point"}}
{"_id":"ac:acre:senadorguiomard","uf":"ac","nome_estado":"acre","codigo_ibge":"1200450","nome_municipio":"senador guiomard","latitude":"-10.1497","longitude":"-67.7362","localizacao":{"coordinates":[{"$numberDouble":"-10.1497"},{"$numberDouble":"-67.7362"}],"type":"Point"}}
{"_id":"ac:acre:senamadureira","uf":"ac","nome_estado":"acre","codigo_ibge":"1200500","nome_municipio":"sena madureira","latitude":"-9.06596","longitude":"-68.6571","localizacao":{"coordinates":[{"$numberDouble":"-9.06596"},{"$numberDouble":"-68.6571"}],"type":"Point"}}
{"_id":"ac:acre:tarauaca","uf":"ac","nome_estado":"acre","codigo_ibge":"1200609","nome_municipio":"tarauacá","latitude":"-8.15697","longitude":"-70.7722","localizacao":{"coordinates":[{"$numberDouble":"-8.15697"},{"$numberDouble":"-70.7722"}],"type":"Point"}}
{"_id":"ac:acre:xapuri","uf":"ac","nome_estado":"acre","codigo_ibge":"1200708","nome_municipio":"xapuri","latitude":"-10.6516","longitude":"-68.4969","localizacao":{"coordinates":[{"$numberDouble":"-10.6516"},{"$numberDouble":"-68.4969"}],"type":"Point"}}
{"_id":"ac:acre:portoacre","uf":"ac","nome_estado":"acre","codigo_ibge":"1200807","nome_municipio":"porto acre","latitude":"-9.58138","longitude":"-67.5478","localizacao":{"coordinates":[{"$numberDouble":"-9.58138"},{"$numberDouble":"-67.5478"}],"type":"Point"}}
{"_id":"am:amazonas:alvaraes","uf":"am","nome_estado":"amazonas","codigo_ibge":"1300029","nome_municipio":"alvarães","latitude":"-3.22727","longitude":"-64.8007","localizacao":{"coordinates":[{"$numberDouble":"-3.22727"},{"$numberDouble":"-64.8007"}],"type":"Point"}}
{"_id":"am:amazonas:amatura","uf":"am","nome_estado":"amazonas","codigo_ibge":"1300060","nome_municipio":"amaturá","latitude":"-3.37455","longitude":"-68.2005","localizacao":{"coordinates":[{"$numberDouble":"-3.37455"},{"$numberDouble":"-68.2005"}],"type":"Point"}}
{"_id":"am:amazonas:anama","uf":"am","nome_estado":"amazonas","codigo_ibge":"1300086","nome_municipio":"anamã","latitude":"-3.56697","longitude":"-61.3963","localizacao":{"coordinates":[{"$numberDouble":"-3.56697"},{"$numberDouble":"-61.3963"}],"type":"Point"}}
{"_id":"am:amazonas:anori","uf":"am","nome_estado":"amazonas","codigo_ibge":"1300102","nome_municipio":"anori","latitude":"-3.74603","longitude":"-61.6575","localizacao":{"coordinates":[{"$numberDouble":"-3.74603"},{"$numberDouble":"-61.6575"}],"type":"Point"}}
{"_id":"am:amazonas:apui","uf":"am","nome_estado":"amazonas","codigo_ibge":"1300144","nome_municipio":"apuí","latitude":"-7.19409","longitude":"-59.896","localizacao":{"coordinates":[{"$numberDouble":"-7.19409"},{"$numberDouble":"-59.896"}],"type":"Point"}}
{"_id":"am:amazonas:atalaiadonorte","uf":"am","nome_estado":"amazonas","codigo_ibge":"1300201","nome_municipio":"atalaia do norte","latitude":"-4.37055","longitude":"-70.1967","localizacao":{"coordinates":[{"$numberDouble":"-4.37055"},{"$numberDouble":"-70.1967"}],"type":"Point"}}
{"_id":"am:amazonas:autazes","uf":"am","nome_estado":"amazonas","codigo_ibge":"1300300","nome_municipio":"autazes","latitude":"-3.58574","longitude":"-59.1256","localizacao":{"coordinates":[{"$numberDouble":"-3.58574"},{"$numberDouble":"-59.1256"}],"type":"Point"}}
{"_id":"am:amazonas:barcelos","uf":"am","nome_estado":"amazonas","codigo_ibge":"1300409","nome_municipio":"barcelos","latitude":"-0.983373","longitude":"-62.9311","localizacao":{"coordinates":[{"$numberDouble":"-0.983373"},{"$numberDouble":"-62.9311"}],"type":"Point"}}
{"_id":"am:amazonas:barreirinha","uf":"am","nome_estado":"amazonas","codigo_ibge":"1300508","nome_municipio":"barreirinha","latitude":"-2.79886","longitude":"-57.0679","localizacao":{"coordinates":[{"$numberDouble":"-2.79886"},{"$numberDouble":"-57.0679"}],"type":"Point"}}
{"_id":"am:amazonas:benjaminconstant","uf":"am","nome_estado":"amazonas","codigo_ibge":"1300607","nome_municipio":"benjamin constant","latitude":"-4.37768","longitude":"-70.0342","localizacao":{"coordinates":[{"$numberDouble":"-4.37768"},{"$numberDouble":"-70.0342"}],"type":"Point"}}
{"_id":"am:amazonas:beruri","uf":"am","nome_estado":"amazonas","codigo_ibge":"1300631","nome_municipio":"beruri","latitude":"-3.89874","longitude":"-61.3616","localizacao":{"coordinates":[{"$numberDouble":"-3.89874"},{"$numberDouble":"-61.3616"}],"type":"Point"}}
{"_id":"am:amazonas:boavistadoramos","uf":"am","nome_estado":"amazonas","codigo_ibge":"1300680","nome_municipio":"boa vista do ramos","latitude":"-2.97409","longitude":"-57.5873","localizacao":{"coordinates":[{"$numberDouble":"-2.97409"},{"$numberDouble":"-57.5873"}],"type":"Point"}}
{"_id":"am:amazonas:bocadoacre","uf":"am","nome_estado":"amazonas","codigo_ibge":"1300706","nome_municipio":"boca do acre","latitude":"-8.74232","longitude":"-67.3919","localizacao":{"coordinates":[{"$numberDouble":"-8.74232"},{"$numberDouble":"-67.3919"}],"type":"Point"}}
{"_id":"am:amazonas:borba","uf":"am","nome_estado":"amazonas","codigo_ibge":"1300805","nome_municipio":"borba","latitude":"-4.39154","longitude":"-59.5874","localizacao":{"coordinates":[{"$numberDouble":"-4.39154"},{"$numberDouble":"-59.5874"}],"type":"Point"}}
{"_id":"am:amazonas:caapiranga","uf":"am","nome_estado":"amazonas","codigo_ibge":"1300839","nome_municipio":"caapiranga","latitude":"-3.31537","longitude":"-61.2206","localizacao":{"coordinates":[{"$numberDouble":"-3.31537"},{"$numberDouble":"-61.2206"}],"type":"Point"}}
{"_id":"am:amazonas:canutama","uf":"am","nome_estado":"amazonas","codigo_ibge":"1300904","nome_municipio":"canutama","latitude":"-6.52582","longitude":"-64.3953","localizacao":{"coordinates":[{"$numberDouble":"-6.52582"},{"$numberDouble":"-64.3953"}],"type":"Point"}}
{"_id":"am:amazonas:carauari","uf":"am","nome_estado":"amazonas","codigo_ibge":"1301001","nome_municipio":"carauari","latitude":"-4.88161","longitude":"-66.9086","localizacao":{"coordinates":[{"$numberDouble":"-4.88161"},{"$numberDouble":"-66.9086"}],"type":"Point"}}
{"_id":"am:amazonas:careiro","uf":"am","nome_estado":"amazonas","codigo_ibge":"1301100","nome_municipio":"careiro","latitude":"-3.76803","longitude":"-60.369","localizacao":{"coordinates":[{"$numberDouble":"-3.76803"},{"$numberDouble":"-60.369"}],"type":"Point"}}
{"_id":"am:amazonas:careirodavarzea","uf":"am","nome_estado":"amazonas","codigo_ibge":"1301159","nome_municipio":"careiro da várzea","latitude":"-3.314","longitude":"-59.5557","localizacao":{"coordinates":[{"$numberDouble":"-3.314"},{"$numberDouble":"-59.5557"}],"type":"Point"}}
{"_id":"am:amazonas:coari","uf":"am","nome_estado":"amazonas","codigo_ibge":"1301209","nome_municipio":"coari","latitude":"-4.09412","longitude":"-63.1441","localizacao":{"coordinates":[{"$numberDouble":"-4.09412"},{"$numberDouble":"-63.1441"}],"type":"Point"}}
{"_id":"am:amazonas:codajas","uf":"am","nome_estado":"amazonas","codigo_ibge":"1301308","nome_municipio":"codajás","latitude":"-3.83053","longitude":"-62.0658","localizacao":{"coordinates":[{"$numberDouble":"-3.83053"},{"$numberDouble":"-62.0658"}],"type":"Point"}}
{"_id":"am:amazonas:eirunepe","uf":"am","nome_estado":"amazonas","codigo_ibge":"1301407","nome_municipio":"eirunepé","latitude":"-6.65677","longitude":"-69.8662","localizacao":{"coordinates":[{"$numberDouble":"-6.65677"},{"$numberDouble":"-69.8662"}],"type":"Point"}}
{"_id":"am:amazonas:envira","uf":"am","nome_estado":"amazonas","codigo_ibge":"1301506","nome_municipio":"envira","latitude":"-7.43789","longitude":"-70.0281","localizacao":{"coordinates":[{"$numberDouble":"-7.43789"},{"$numberDouble":"-70.0281"}],"type":"Point"}}
{"_id":"am:amazonas:fonteboa","uf":"am","nome_estado":"amazonas","codigo_ibge":"1301605","nome_municipio":"fonte boa","latitude":"-2.52342","longitude":"-66.0942","localizacao":{"coordinates":[{"$numberDouble":"-2.52342"},{"$numberDouble":"-66.0942"}],"type":"Point"}}
{"_id":"am:amazonas:guajara","uf":"am","nome_estado":"amazonas","codigo_ibge":"1301654","nome_municipio":"guajará","latitude":"-7.53797","longitude":"-72.5907","localizacao":{"coordinates":[{"$numberDouble":"-7.53797"},{"$numberDouble":"-72.5907"}],"type":"Point"}}
{"_id":"am:amazonas:humaita","uf":"am","nome_estado":"amazonas","codigo_ibge":"1301704","nome_municipio":"humaitá","latitude":"-7.51171","longitude":"-63.0327","localizacao":{"coordinates":[{"$numberDouble":"-7.51171"},{"$numberDouble":"-63.0327"}],"type":"Point"}}
{"_id":"am:amazonas:ipixuna","uf":"am","nome_estado":"amazonas","codigo_ibge":"1301803","nome_municipio":"ipixuna","latitude":"-7.04791","longitude":"-71.6934","localizacao":{"coordinates":[{"$numberDouble":"-7.04791"},{"$numberDouble":"-71.6934"}],"type":"Point"}}
{"_id":"am:amazonas:iranduba","uf":"am","nome_estado":"amazonas","codigo_ibge":"1301852","nome_municipio":"iranduba","latitude":"-3.27479","longitude":"-60.19","localizacao":{"coordinates":[{"$numberDouble":"-3.27479"},{"$numberDouble":"-60.19"}],"type":"Point"}}
{"_id":"am:amazonas:itacoatiara","uf":"am","nome_estado":"amazonas","codigo_ibge":"1301902","nome_municipio":"itacoatiara","latitude":"-3.13861","longitude":"-58.4449","localizacao":{"coordinates":[{"$numberDouble":"-3.13861"},{"$numberDouble":"-58.4449"}],"type":"Point"}}
{"_id":"am:amazonas:itamarati","uf":"am","nome_estado":"amazonas","codigo_ibge":"1301951","nome_municipio":"itamarati","latitude":"-6.43852","longitude":"-68.2437","localizacao":{"coordinates":[{"$numberDouble":"-6.43852"},{"$numberDouble":"-68.2437"}],"type":"Point"}}
{"_id":"am:amazonas:itapiranga","uf":"am","nome_estado":"amazonas","codigo_ibge":"1302009","nome_municipio":"itapiranga","latitude":"-2.74081","longitude":"-58.0293","localizacao":{"coordinates":[{"$numberDouble":"-2.74081"},{"$numberDouble":"-58.0293"}],"type":"Point"}}
{"_id":"am:amazonas:japura","uf":"am","nome_estado":"amazonas","codigo_ibge":"1302108","nome_municipio":"japurá","latitude":"-1.88237","longitude":"-66.9291","localizacao":{"coordinates":[{"$numberDouble":"-1.88237"},{"$numberDouble":"-66.9291"}],"type":"Point"}}
{"_id":"am:amazonas:jurua","uf":"am","nome_estado":"amazonas","codigo_ibge":"1302207","nome_municipio":"juruá","latitude":"-3.48438","longitude":"-66.0718","localizacao":{"coordinates":[{"$numberDouble":"-3.48438"},{"$numberDouble":"-66.0718"}],"type":"Point"}}
{"_id":"am:amazonas:jutai","uf":"am","nome_estado":"amazonas","codigo_ibge":"1302306","nome_municipio":"jutaí","latitude":"-2.75814","longitude":"-66.7595","localizacao":{"coordinates":[{"$numberDouble":"-2.75814"},{"$numberDouble":"-66.7595"}],"type":"Point"}}
{"_id":"am:amazonas:labrea","uf":"am","nome_estado":"amazonas","codigo_ibge":"1302405","nome_municipio":"lábrea","latitude":"-7.26413","longitude":"-64.7948","localizacao":{"coordinates":[{"$numberDouble":"-7.26413"},{"$numberDouble":"-64.7948"}],"type":"Point"}}
{"_id":"am:amazonas:manacapuru","uf":"am","nome_estado":"amazonas","codigo_ibge":"1302504","nome_municipio":"manacapuru","latitude":"-3.29066","longitude":"-60.6216","localizacao":{"coordinates":[{"$numberDouble":"-3.29066"},{"$numberDouble":"-60.6216"}],"type":"Point"}}
{"_id":"am:amazonas:manaquiri","uf":"am","nome_estado":"amazonas","codigo_ibge":"1302553","nome_municipio":"manaquiri","latitude":"-3.44078","longitude":"-60.4612","localizacao":{"coordinates":[{"$numberDouble":"-3.44078"},{"$numberDouble":"-60.4612"}],"type":"Point"}}
{"_id":"am:amazonas:manaus","uf":"am","nome_estado":"amazonas","codigo_ibge":"1302603","nome_municipio":"manaus","latitude":"-3.11866","longitude":"-60.0212","localizacao":{"coordinates":[{"$numberDouble":"-3.11866"},{"$numberDouble":"-60.0212"}],"type":"Point"}}
{"_id":"am:amazonas:manicore","uf":"am","nome_estado":"amazonas","codigo_ibge":"1302702","nome_municipio":"manicoré","latitude":"-5.80462","longitude":"-61.2895","localizacao":{"coordinates":[{"$numberDouble":"-5.80462"},{"$numberDouble":"-61.2895"}],"type":"Point"}}
{"_id":"am:amazonas:maraa","uf":"am","nome_estado":"amazonas","codigo_ibge":"1302801","nome_municipio":"maraã","latitude":"-1.85313","longitude":"-65.573","localizacao":{"coordinates":[{"$numberDouble":"-1.85313"},{"$numberDouble":"-65.573"}],"type":"Point"}}
{"_id":"am:amazonas:maues","uf":"am","nome_estado":"amazonas","codigo_ibge":"1302900","nome_municipio":"maués","latitude":"-3.39289","longitude":"-57.7067","localizacao":{"coordinates":[{"$numberDouble":"-3.39289"},{"$numberDouble":"-57.7067"}],"type":"Point"}}
{"_id":"am:amazonas:nhamunda","uf":"am","nome_estado":"amazonas","codigo_ibge":"1303007","nome_municipio":"nhamundá","latitude":"-2.20793","longitude":"-56.7112","localizacao":{"coordinates":[{"$numberDouble":"-2.20793"},{"$numberDouble":"-56.7112"}],"type":"Point"}}
{"_id":"am:amazonas:novaolindadonorte","uf":"am","nome_estado":"amazonas","codigo_ibge":"1303106","nome_municipio":"nova olinda do norte","latitude":"-3.90037","longitude":"-59.094","localizacao":{"coordinates":[{"$numberDouble":"-3.90037"},{"$numberDouble":"-59.094"}],"type":"Point"}}
{"_id":"am:amazonas:novoairao","uf":"am","nome_estado":"amazonas","codigo_ibge":"1303205","nome_municipio":"novo airão","latitude":"-2.63637","longitude":"-60.9434","localizacao":{"coordinates":[{"$numberDouble":"-2.63637"},{"$numberDouble":"-60.9434"}],"type":"Point"}}
{"_id":"am:amazonas:novoaripuana","uf":"am","nome_estado":"amazonas","codigo_ibge":"1303304","nome_municipio":"novo aripuanã","latitude":"-5.12593","longitude":"-60.3732","localizacao":{"coordinates":[{"$numberDouble":"-5.12593"},{"$numberDouble":"-60.3732"}],"type":"Point"}}
{"_id":"am:amazonas:parintins","uf":"am","nome_estado":"amazonas","codigo_ibge":"1303403","nome_municipio":"parintins","latitude":"-2.63741","longitude":"-56.729","localizacao":{"coordinates":[{"$numberDouble":"-2.63741"},{"$numberDouble":"-56.729"}],"type":"Point"}}
{"_id":"am:amazonas:pauini","uf":"am","nome_estado":"amazonas","codigo_ibge":"1303502","nome_municipio":"pauini","latitude":"-7.71311","longitude":"-66.992","localizacao":{"coordinates":[{"$numberDouble":"-7.71311"},{"$numberDouble":"-66.992"}],"type":"Point"}}
{"_id":"am:amazonas:presidentefigueiredo","uf":"am","nome_estado":"amazonas","codigo_ibge":"1303536","nome_municipio":"presidente figueiredo","latitude":"-2.02981","longitude":"-60.0234","localizacao":{"coordinates":[{"$numberDouble":"-2.02981"},{"$numberDouble":"-60.0234"}],"type":"Point"}}
{"_id":"am:amazonas:riopretodaeva","uf":"am","nome_estado":"amazonas","codigo_ibge":"1303569","nome_municipio":"rio preto da eva","latitude":"-2.7045","longitude":"-59.6858","localizacao":{"coordinates":[{"$numberDouble":"-2.7045"},{"$numberDouble":"-59.6858"}],"type":"Point"}}
{"_id":"am:amazonas:santaisabeldorionegro","uf":"am","nome_estado":"amazonas","codigo_ibge":"1303601","nome_municipio":"santa isabel do rio negro","latitude":"-0.410824","longitude":"-65.0092","localizacao":{"coordinates":[{"$numberDouble":"-0.410824"},{"$numberDouble":"-65.0092"}],"type":"Point"}}
{"_id":"am:amazonas:santoantoniodoica","uf":"am","nome_estado":"amazonas","codigo_ibge":"1303700","nome_municipio":"santo antônio do içá","latitude":"-3.09544","longitude":"-67.9463","localizacao":{"coordinates":[{"$numberDouble":"-3.09544"},{"$numberDouble":"-67.9463"}],"type":"Point"}}
{"_id":"am:amazonas:saogabrieldacachoeira","uf":"am","nome_estado":"amazonas","codigo_ibge":"1303809","nome_municipio":"são gabriel da cachoeira","latitude":"-0.11909","longitude":"-67.084","localizacao":{"coordinates":[{"$numberDouble":"-0.11909"},{"$numberDouble":"-67.084"}],"type":"Point"}}
{"_id":"am:amazonas:saopaulodeolivenca","uf":"am","nome_estado":"amazonas","codigo_ibge":"1303908","nome_municipio":"são paulo de olivença","latitude":"-3.47292","longitude":"-68.9646","localizacao":{"coordinates":[{"$numberDouble":"-3.47292"},{"$numberDouble":"-68.9646"}],"type":"Point"}}
{"_id":"am:amazonas:saosebastiaodouatuma","uf":"am","nome_estado":"amazonas","codigo_ibge":"1303957","nome_municipio":"são sebastião do uatumã","latitude":"-2.55915","longitude":"-57.8731","localizacao":{"coordinates":[{"$numberDouble":"-2.55915"},{"$numberDouble":"-57.8731"}],"type":"Point"}}
{"_id":"am:amazonas:silves","uf":"am","nome_estado":"amazonas","codigo_ibge":"1304005","nome_municipio":"silves","latitude":"-2.81748","longitude":"-58.248","localizacao":{"coordinates":[{"$numberDouble":"-2.81748"},{"$numberDouble":"-58.248"}],"type":"Point"}}
{"_id":"am:amazonas:tabatinga","uf":"am","nome_estado":"amazonas","codigo_ibge":"1304062","nome_municipio":"tabatinga","latitude":"-4.2416","longitude":"-69.9383","localizacao":{"coordinates":[{"$numberDouble":"-4.2416"},{"$numberDouble":"-69.9383"}],"type":"Point"}}
{"_id":"am:amazonas:tapaua","uf":"am","nome_estado":"amazonas","codigo_ibge":"1304104","nome_municipio":"tapauá","latitude":"-5.62085","longitude":"-63.1808","localizacao":{"coordinates":[{"$numberDouble":"-5.62085"},{"$numberDouble":"-63.1808"}],"type":"Point"}}
{"_id":"am:amazonas:tefe","uf":"am","nome_estado":"amazonas","codigo_ibge":"1304203","nome_municipio":"tefé","latitude":"-3.36822","longitude":"-64.7193","localizacao":{"coordinates":[{"$numberDouble":"-3.36822"},{"$numberDouble":"-64.7193"}],"type":"Point"}}
{"_id":"am:amazonas:tonantins","uf":"am","nome_estado":"amazonas","codigo_ibge":"1304237","nome_municipio":"tonantins","latitude":"-2.86582","longitude":"-67.7919","localizacao":{"coordinates":[{"$numberDouble":"-2.86582"},{"$numberDouble":"-67.7919"}],"type":"Point"}}
{"_id":"am:amazonas:uarini","uf":"am","nome_estado":"amazonas","codigo_ibge":"1304260","nome_municipio":"uarini","latitude":"-2.99609","longitude":"-65.1133","localizacao":{"coordinates":[{"$numberDouble":"-2.99609"},{"$numberDouble":"-65.1133"}],"type":"Point"}}
{"_id":"am:amazonas:urucara","uf":"am","nome_estado":"amazonas","codigo_ibge":"1304302","nome_municipio":"urucará","latitude":"-2.52936","longitude":"-57.7538","localizacao":{"coordinates":[{"$numberDouble":"-2.52936"},{"$numberDouble":"-57.7538"}],"type":"Point"}}
{"_id":"am:amazonas:urucurituba","uf":"am","nome_estado":"amazonas","codigo_ibge":"1304401","nome_municipio":"urucurituba","latitude":"-3.12841","longitude":"-58.1496","localizacao":{"coordinates":[{"$numberDouble":"-3.12841"},{"$numberDouble":"-58.1496"}],"type":"Point"}}
{"_id":"rr:roraima:amajari","uf":"rr","nome_estado":"roraima","codigo_ibge":"1400027","nome_municipio":"amajari","latitude":"3.64571","longitude":"-61.3692","localizacao":{"coordinates":[{"$numberDouble":"3.64571"},{"$numberDouble":"-61.3692"}],"type":"Point"}}
{"_id":"rr:roraima:altoalegre","uf":"rr","nome_estado":"roraima","codigo_ibge":"1400050","nome_municipio":"alto alegre","latitude":"2.98858","longitude":"-61.3072","localizacao":{"coordinates":[{"$numberDouble":"2.98858"},{"$numberDouble":"-61.3072"}],"type":"Point"}}
{"_id":"rr:roraima:boavista","uf":"rr","nome_estado":"roraima","codigo_ibge":"1400100","nome_municipio":"boa vista","latitude":"2.82384","longitude":"-60.6753","localizacao":{"coordinates":[{"$numberDouble":"2.82384"},{"$numberDouble":"-60.6753"}],"type":"Point"}}
{"_id":"rr:roraima:bonfim","uf":"rr","nome_estado":"roraima","codigo_ibge":"1400159","nome_municipio":"bonfim","latitude":"3.36161","longitude":"-59.8333","localizacao":{"coordinates":[{"$numberDouble":"3.36161"},{"$numberDouble":"-59.8333"}],"type":"Point"}}
{"_id":"rr:roraima:canta","uf":"rr","nome_estado":"roraima","codigo_ibge":"1400175","nome_municipio":"cantá","latitude":"2.60994","longitude":"-60.6058","localizacao":{"coordinates":[{"$numberDouble":"2.60994"},{"$numberDouble":"-60.6058"}],"type":"Point"}}
{"_id":"rr:roraima:caracarai","uf":"rr","nome_estado":"roraima","codigo_ibge":"1400209","nome_municipio":"caracaraí","latitude":"1.82766","longitude":"-61.1304","localizacao":{"coordinates":[{"$numberDouble":"1.82766"},{"$numberDouble":"-61.1304"}],"type":"Point"}}
{"_id":"rr:roraima:caroebe","uf":"rr","nome_estado":"roraima","codigo_ibge":"1400233","nome_municipio":"caroebe","latitude":"0.884203","longitude":"-59.6959","localizacao":{"coordinates":[{"$numberDouble":"0.884203"},{"$numberDouble":"-59.6959"}],"type":"Point"}}
{"_id":"rr:roraima:iracema","uf":"rr","nome_estado":"roraima","codigo_ibge":"1400282","nome_municipio":"iracema","latitude":"2.18305","longitude":"-61.0415","localizacao":{"coordinates":[{"$numberDouble":"2.18305"},{"$numberDouble":"-61.0415"}],"type":"Point"}}
{"_id":"rr:roraima:mucajai","uf":"rr","nome_estado":"roraima","codigo_ibge":"1400308","nome_municipio":"mucajaí","latitude":"2.43998","longitude":"-60.9096","localizacao":{"coordinates":[{"$numberDouble":"2.43998"},{"$numberDouble":"-60.9096"}],"type":"Point"}}
{"_id":"rr:roraima:normandia","uf":"rr","nome_estado":"roraima","codigo_ibge":"1400407","nome_municipio":"normandia","latitude":"3.8853","longitude":"-59.6204","localizacao":{"coordinates":[{"$numberDouble":"3.8853"},{"$numberDouble":"-59.6204"}],"type":"Point"}}
{"_id":"rr:roraima:pacaraima","uf":"rr","nome_estado":"roraima","codigo_ibge":"1400456","nome_municipio":"pacaraima","latitude":"4.4799","longitude":"-61.1477","localizacao":{"coordinates":[{"$numberDouble":"4.4799"},{"$numberDouble":"-61.1477"}],"type":"Point"}}
{"_id":"rr:roraima:rorainopolis","uf":"rr","nome_estado":"roraima","codigo_ibge":"1400472","nome_municipio":"rorainópolis","latitude":"0.939956","longitude":"-60.4389","localizacao":{"coordinates":[{"$numberDouble":"0.939956"},{"$numberDouble":"-60.4389"}],"type":"Point"}}
{"_id":"rr:roraima:saojoaodabaliza","uf":"rr","nome_estado":"roraima","codigo_ibge":"1400506","nome_municipio":"são joão da baliza","latitude":"0.951659","longitude":"-59.9133","localizacao":{"coordinates":[{"$numberDouble":"0.951659"},{"$numberDouble":"-59.9133"}],"type":"Point"}}
{"_id":"rr:roraima:saoluiz","uf":"rr","nome_estado":"roraima","codigo_ibge":"1400605","nome_municipio":"são luiz","latitude":"1.01019","longitude":"-60.0419","localizacao":{"coordinates":[{"$numberDouble":"1.01019"},{"$numberDouble":"-60.0419"}],"type":"Point"}}
{"_id":"rr:roraima:uiramuta","uf":"rr","nome_estado":"roraima","codigo_ibge":"1400704","nome_municipio":"uiramutã","latitude":"4.60314","longitude":"-60.1815","localizacao":{"coordinates":[{"$numberDouble":"4.60314"},{"$numberDouble":"-60.1815"}],"type":"Point"}}
{"_id":"pa:para:abaetetuba","uf":"pa","nome_estado":"pará","codigo_ibge":"1500107","nome_municipio":"abaetetuba","latitude":"-1.72183","longitude":"-48.8788","localizacao":{"coordinates":[{"$numberDouble":"-1.72183"},{"$numberDouble":"-48.8788"}],"type":"Point"}}
{"_id":"pa:para:abelfigueiredo","uf":"pa","nome_estado":"pará","codigo_ibge":"1500131","nome_municipio":"abel figueiredo","latitude":"-4.95333","longitude":"-48.3933","localizacao":{"coordinates":[{"$numberDouble":"-4.95333"},{"$numberDouble":"-48.3933"}],"type":"Point"}}
{"_id":"pa:para:acara","uf":"pa","nome_estado":"pará","codigo_ibge":"1500206","nome_municipio":"acará","latitude":"-1.95383","longitude":"-48.1985","localizacao":{"coordinates":[{"$numberDouble":"-1.95383"},{"$numberDouble":"-48.1985"}],"type":"Point"}}
{"_id":"pa:para:afua","uf":"pa","nome_estado":"pará","codigo_ibge":"1500305","nome_municipio":"afuá","latitude":"-0.154874","longitude":"-50.3861","localizacao":{"coordinates":[{"$numberDouble":"-0.154874"},{"$numberDouble":"-50.3861"}],"type":"Point"}}
{"_id":"pa:para:aguaazuldonorte","uf":"pa","nome_estado":"pará","codigo_ibge":"1500347","nome_municipio":"água azul do norte","latitude":"-6.79053","longitude":"-50.4791","localizacao":{"coordinates":[{"$numberDouble":"-6.79053"},{"$numberDouble":"-50.4791"}],"type":"Point"}}
{"_id":"pa:para:alenquer","uf":"pa","nome_estado":"pará","codigo_ibge":"1500404","nome_municipio":"alenquer","latitude":"-1.94623","longitude":"-54.7384","localizacao":{"coordinates":[{"$numberDouble":"-1.94623"},{"$numberDouble":"-54.7384"}],"type":"Point"}}
{"_id":"pa:para:almeirim","uf":"pa","nome_estado":"pará","codigo_ibge":"1500503","nome_municipio":"almeirim","latitude":"-1.52904","longitude":"-52.5788","localizacao":{"coordinates":[{"$numberDouble":"-1.52904"},{"$numberDouble":"-52.5788"}],"type":"Point"}}
{"_id":"pa:para:altamira","uf":"pa","nome_estado":"pará","codigo_ibge":"1500602","nome_municipio":"altamira","latitude":"-3.20407","longitude":"-52.21","localizacao":{"coordinates":[{"$numberDouble":"-3.20407"},{"$numberDouble":"-52.21"}],"type":"Point"}}
{"_id":"pa:para:anajas","uf":"pa","nome_estado":"pará","codigo_ibge":"1500701","nome_municipio":"anajás","latitude":"-0.996811","longitude":"-49.9354","localizacao":{"coordinates":[{"$numberDouble":"-0.996811"},{"$numberDouble":"-49.9354"}],"type":"Point"}}
{"_id":"pa:para:ananindeua","uf":"pa","nome_estado":"pará","codigo_ibge":"1500800","nome_municipio":"ananindeua","latitude":"-1.36391","longitude":"-48.3743","localizacao":{"coordinates":[{"$numberDouble":"-1.36391"},{"$numberDouble":"-48.3743"}],"type":"Point"}}
{"_id":"pa:para:anapu","uf":"pa","nome_estado":"pará","codigo_ibge":"1500859","nome_municipio":"anapu","latitude":"-3.46985","longitude":"-51.2003","localizacao":{"coordinates":[{"$numberDouble":"-3.46985"},{"$numberDouble":"-51.2003"}],"type":"Point"}}
{"_id":"pa:para:augustocorrea","uf":"pa","nome_estado":"pará","codigo_ibge":"1500909","nome_municipio":"augusto corrêa","latitude":"-1.05109","longitude":"-46.6147","localizacao":{"coordinates":[{"$numberDouble":"-1.05109"},{"$numberDouble":"-46.6147"}],"type":"Point"}}
{"_id":"pa:para:auroradopara","uf":"pa","nome_estado":"pará","codigo_ibge":"1500958","nome_municipio":"aurora do pará","latitude":"-2.14898","longitude":"-47.5677","localizacao":{"coordinates":[{"$numberDouble":"-2.14898"},{"$numberDouble":"-47.5677"}],"type":"Point"}}
{"_id":"pa:para:aveiro","uf":"pa","nome_estado":"pará","codigo_ibge":"1501006","nome_municipio":"aveiro","latitude":"-3.60841","longitude":"-55.3199","localizacao":{"coordinates":[{"$numberDouble":"-3.60841"},{"$numberDouble":"-55.3199"}],"type":"Point"}}
{"_id":"pa:para:bagre","uf":"pa","nome_estado":"pará","codigo_ibge":"1501105","nome_municipio":"bagre","latitude":"-1.90057","longitude":"-50.1987","localizacao":{"coordinates":[{"$numberDouble":"-1.90057"},{"$numberDouble":"-50.1987"}],"type":"Point"}}
{"_id":"pa:para:baiao","uf":"pa","nome_estado":"pará","codigo_ibge":"1501204","nome_municipio":"baião","latitude":"-2.79021","longitude":"-49.6694","localizacao":{"coordinates":[{"$numberDouble":"-2.79021"},{"$numberDouble":"-49.6694"}],"type":"Point"}}
{"_id":"pa:para:bannach","uf":"pa","nome_estado":"pará","codigo_ibge":"1501253","nome_municipio":"bannach","latitude":"-7.34779","longitude":"-50.3959","localizacao":{"coordinates":[{"$numberDouble":"-7.34779"},{"$numberDouble":"-50.3959"}],"type":"Point"}}
{"_id":"pa:para:barcarena","uf":"pa","nome_estado":"pará","codigo_ibge":"1501303","nome_municipio":"barcarena","latitude":"-1.51187","longitude":"-48.6195","localizacao":{"coordinates":[{"$numberDouble":"-1.51187"},{"$numberDouble":"-48.6195"}],"type":"Point"}}
{"_id":"pa:para:belem","uf":"pa","nome_estado":"pará","codigo_ibge":"1501402","nome_municipio":"belém","latitude":"-1.4554","longitude":"-48.4898","localizacao":{"coordinates":[{"$numberDouble":"-1.4554"},{"$numberDouble":"-48.4898"}],"type":"Point"}}
{"_id":"pa:para:belterra","uf":"pa","nome_estado":"pará","codigo_ibge":"1501451","nome_municipio":"belterra","latitude":"-2.63609","longitude":"-54.9374","localizacao":{"coordinates":[{"$numberDouble":"-2.63609"},{"$numberDouble":"-54.9374"}],"type":"Point"}}
{"_id":"pa:para:benevides","uf":"pa","nome_estado":"pará","codigo_ibge":"1501501","nome_municipio":"benevides","latitude":"-1.36183","longitude":"-48.2434","localizacao":{"coordinates":[{"$numberDouble":"-1.36183"},{"$numberDouble":"-48.2434"}],"type":"Point"}}
{"_id":"pa:para:bomjesusdotocantins","uf":"pa","nome_estado":"pará","codigo_ibge":"1501576","nome_municipio":"bom jesus do tocantins","latitude":"-5.0424","longitude":"-48.6047","localizacao":{"coordinates":[{"$numberDouble":"-5.0424"},{"$numberDouble":"-48.6047"}],"type":"Point"}}
{"_id":"pa:para:bonito","uf":"pa","nome_estado":"pará","codigo_ibge":"1501600","nome_municipio":"bonito","latitude":"-1.36745","longitude":"-47.3066","localizacao":{"coordinates":[{"$numberDouble":"-1.36745"},{"$numberDouble":"-47.3066"}],"type":"Point"}}
{"_id":"pa:para:braganca","uf":"pa","nome_estado":"pará","codigo_ibge":"1501709","nome_municipio":"bragança","latitude":"-1.06126","longitude":"-46.7826","localizacao":{"coordinates":[{"$numberDouble":"-1.06126"},{"$numberDouble":"-46.7826"}],"type":"Point"}}
{"_id":"pa:para:brasilnovo","uf":"pa","nome_estado":"pará","codigo_ibge":"1501725","nome_municipio":"brasil novo","latitude":"-3.29792","longitude":"-52.534","localizacao":{"coordinates":[{"$numberDouble":"-3.29792"},{"$numberDouble":"-52.534"}],"type":"Point"}}
{"_id":"pa:para:brejograndedoaraguaia","uf":"pa","nome_estado":"pará","codigo_ibge":"1501758","nome_municipio":"brejo grande do araguaia","latitude":"-5.69822","longitude":"-48.4103","localizacao":{"coordinates":[{"$numberDouble":"-5.69822"},{"$numberDouble":"-48.4103"}],"type":"Point"}}
{"_id":"pa:para:breubranco","uf":"pa","nome_estado":"pará","codigo_ibge":"1501782","nome_municipio":"breu branco","latitude":"-3.77191","longitude":"-49.5735","localizacao":{"coordinates":[{"$numberDouble":"-3.77191"},{"$numberDouble":"-49.5735"}],"type":"Point"}}
{"_id":"pa:para:breves","uf":"pa","nome_estado":"pará","codigo_ibge":"1501808","nome_municipio":"breves","latitude":"-1.68036","longitude":"-50.4791","localizacao":{"coordinates":[{"$numberDouble":"-1.68036"},{"$numberDouble":"-50.4791"}],"type":"Point"}}
{"_id":"pa:para:bujaru","uf":"pa","nome_estado":"pará","codigo_ibge":"1501907","nome_municipio":"bujaru","latitude":"-1.51762","longitude":"-48.0381","localizacao":{"coordinates":[{"$numberDouble":"-1.51762"},{"$numberDouble":"-48.0381"}],"type":"Point"}}
{"_id":"pa:para:cachoeiradopiria","uf":"pa","nome_estado":"pará","codigo_ibge":"1501956","nome_municipio":"cachoeira do piriá","latitude":"-1.75974","longitude":"-46.5459","localizacao":{"coordinates":[{"$numberDouble":"-1.75974"},{"$numberDouble":"-46.5459"}],"type":"Point"}}
{"_id":"pa:para:cachoeiradoarari","uf":"pa","nome_estado":"pará","codigo_ibge":"1502004","nome_municipio":"cachoeira do arari","latitude":"-1.01226","longitude":"-48.9503","localizacao":{"coordinates":[{"$numberDouble":"-1.01226"},{"$numberDouble":"-48.9503"}],"type":"Point"}}
{"_id":"pa:para:cameta","uf":"pa","nome_estado":"pará","codigo_ibge":"1502103","nome_municipio":"cametá","latitude":"-2.24295","longitude":"-49.4979","localizacao":{"coordinates":[{"$numberDouble":"-2.24295"},{"$numberDouble":"-49.4979"}],"type":"Point"}}
{"_id":"pa:para:canaadoscarajas","uf":"pa","nome_estado":"pará","codigo_ibge":"1502152","nome_municipio":"canaã dos carajás","latitude":"-6.49659","longitude":"-49.8776","localizacao":{"coordinates":[{"$numberDouble":"-6.49659"},{"$numberDouble":"-49.8776"}],"type":"Point"}}
{"_id":"pa:para:capanema","uf":"pa","nome_estado":"pará","codigo_ibge":"1502202","nome_municipio":"capanema","latitude":"-1.20529","longitude":"-47.1778","localizacao":{"coordinates":[{"$numberDouble":"-1.20529"},{"$numberDouble":"-47.1778"}],"type":"Point"}}
{"_id":"pa:para:capitaopoco","uf":"pa","nome_estado":"pará","codigo_ibge":"1502301","nome_municipio":"capitão poço","latitude":"-1.74785","longitude":"-47.0629","localizacao":{"coordinates":[{"$numberDouble":"-1.74785"},{"$numberDouble":"-47.0629"}],"type":"Point"}}
{"_id":"pa:para:castanhal","uf":"pa","nome_estado":"pará","codigo_ibge":"1502400","nome_municipio":"castanhal","latitude":"-1.29797","longitude":"-47.9167","localizacao":{"coordinates":[{"$numberDouble":"-1.29797"},{"$numberDouble":"-47.9167"}],"type":"Point"}}
{"_id":"pa:para:chaves","uf":"pa","nome_estado":"pará","codigo_ibge":"1502509","nome_municipio":"chaves","latitude":"-0.164154","longitude":"-49.987","localizacao":{"coordinates":[{"$numberDouble":"-0.164154"},{"$numberDouble":"-49.987"}],"type":"Point"}}
{"_id":"pa:para:colares","uf":"pa","nome_estado":"pará","codigo_ibge":"1502608","nome_municipio":"colares","latitude":"-0.936423","longitude":"-48.2803","localizacao":{"coordinates":[{"$numberDouble":"-0.936423"},{"$numberDouble":"-48.2803"}],"type":"Point"}}
{"_id":"pa:para:conceicaodoaraguaia","uf":"pa","nome_estado":"pará","codigo_ibge":"1502707","nome_municipio":"conceição do araguaia","latitude":"-8.26136","longitude":"-49.2689","localizacao":{"coordinates":[{"$numberDouble":"-8.26136"},{"$numberDouble":"-49.2689"}],"type":"Point"}}
{"_id":"pa:para:concordiadopara","uf":"pa","nome_estado":"pará","codigo_ibge":"1502756","nome_municipio":"concórdia do pará","latitude":"-1.99238","longitude":"-47.9422","localizacao":{"coordinates":[{"$numberDouble":"-1.99238"},{"$numberDouble":"-47.9422"}],"type":"Point"}}
{"_id":"pa:para:cumarudonorte","uf":"pa","nome_estado":"pará","codigo_ibge":"1502764","nome_municipio":"cumaru do norte","latitude":"-7.81097","longitude":"-50.7698","localizacao":{"coordinates":[{"$numberDouble":"-7.81097"},{"$numberDouble":"-50.7698"}],"type":"Point"}}
{"_id":"pa:para:curionopolis","uf":"pa","nome_estado":"pará","codigo_ibge":"1502772","nome_municipio":"curionópolis","latitude":"-6.09965","longitude":"-49.6068","localizacao":{"coordinates":[{"$numberDouble":"-6.09965"},{"$numberDouble":"-49.6068"}],"type":"Point"}}
{"_id":"pa:para:curralinho","uf":"pa","nome_estado":"pará","codigo_ibge":"1502806","nome_municipio":"curralinho","latitude":"-1.81179","longitude":"-49.7952","localizacao":{"coordinates":[{"$numberDouble":"-1.81179"},{"$numberDouble":"-49.7952"}],"type":"Point"}}
{"_id":"pa:para:curua","uf":"pa","nome_estado":"pará","codigo_ibge":"1502855","nome_municipio":"curuá","latitude":"-1.88775","longitude":"-55.1168","localizacao":{"coordinates":[{"$numberDouble":"-1.88775"},{"$numberDouble":"-55.1168"}],"type":"Point"}}
{"_id":"pa:para:curuca","uf":"pa","nome_estado":"pará","codigo_ibge":"1502905","nome_municipio":"curuçá","latitude":"-0.733214","longitude":"-47.8515","localizacao":{"coordinates":[{"$numberDouble":"-0.733214"},{"$numberDouble":"-47.8515"}],"type":"Point"}}
{"_id":"pa:para:domeliseu","uf":"pa","nome_estado":"pará","codigo_ibge":"1502939","nome_municipio":"dom eliseu","latitude":"-4.19944","longitude":"-47.8245","localizacao":{"coordinates":[{"$numberDouble":"-4.19944"},{"$numberDouble":"-47.8245"}],"type":"Point"}}
{"_id":"pa:para:eldoradodoscarajas","uf":"pa","nome_estado":"pará","codigo_ibge":"1502954","nome_municipio":"eldorado dos carajás","latitude":"-6.10389","longitude":"-49.3553","localizacao":{"coordinates":[{"$numberDouble":"-6.10389"},{"$numberDouble":"-49.3553"}],"type":"Point"}}
{"_id":"pa:para:faro","uf":"pa","nome_estado":"pará","codigo_ibge":"1503002","nome_municipio":"faro","latitude":"-2.16805","longitude":"-56.7405","localizacao":{"coordinates":[{"$numberDouble":"-2.16805"},{"$numberDouble":"-56.7405"}],"type":"Point"}}
{"_id":"pa:para:florestadoaraguaia","uf":"pa","nome_estado":"pará","codigo_ibge":"1503044","nome_municipio":"floresta do araguaia","latitude":"-7.55335","longitude":"-49.7125","localizacao":{"coordinates":[{"$numberDouble":"-7.55335"},{"$numberDouble":"-49.7125"}],"type":"Point"}}
{"_id":"pa:para:garrafaodonorte","uf":"pa","nome_estado":"pará","codigo_ibge":"1503077","nome_municipio":"garrafão do norte","latitude":"-1.92986","longitude":"-47.0505","localizacao":{"coordinates":[{"$numberDouble":"-1.92986"},{"$numberDouble":"-47.0505"}],"type":"Point"}}
{"_id":"pa:para:goianesiadopara","uf":"pa","nome_estado":"pará","codigo_ibge":"1503093","nome_municipio":"goianésia do pará","latitude":"-3.84338","longitude":"-49.0974","localizacao":{"coordinates":[{"$numberDouble":"-3.84338"},{"$numberDouble":"-49.0974"}],"type":"Point"}}
{"_id":"pa:para:gurupa","uf":"pa","nome_estado":"pará","codigo_ibge":"1503101","nome_municipio":"gurupá","latitude":"-1.41412","longitude":"-51.6338","localizacao":{"coordinates":[{"$numberDouble":"-1.41412"},{"$numberDouble":"-51.6338"}],"type":"Point"}}
{"_id":"pa:para:igarape-acu","uf":"pa","nome_estado":"pará","codigo_ibge":"1503200","nome_municipio":"igarapé-açu","latitude":"-1.12539","longitude":"-47.626","localizacao":{"coordinates":[{"$numberDouble":"-1.12539"},{"$numberDouble":"-47.626"}],"type":"Point"}}
{"_id":"pa:para:igarape-miri","uf":"pa","nome_estado":"pará","codigo_ibge":"1503309","nome_municipio":"igarapé-miri","latitude":"-1.97533","longitude":"-48.9575","localizacao":{"coordinates":[{"$numberDouble":"-1.97533"},{"$numberDouble":"-48.9575"}],"type":"Point"}}
{"_id":"pa:para:inhangapi","uf":"pa","nome_estado":"pará","codigo_ibge":"1503408","nome_municipio":"inhangapi","latitude":"-1.4349","longitude":"-47.9114","localizacao":{"coordinates":[{"$numberDouble":"-1.4349"},{"$numberDouble":"-47.9114"}],"type":"Point"}}
{"_id":"pa:para:ipixunadopara","uf":"pa","nome_estado":"pará","codigo_ibge":"1503457","nome_municipio":"ipixuna do pará","latitude":"-2.55992","longitude":"-47.5059","localizacao":{"coordinates":[{"$numberDouble":"-2.55992"},{"$numberDouble":"-47.5059"}],"type":"Point"}}
{"_id":"pa:para:irituia","uf":"pa","nome_estado":"pará","codigo_ibge":"1503507","nome_municipio":"irituia","latitude":"-1.76984","longitude":"-47.446","localizacao":{"coordinates":[{"$numberDouble":"-1.76984"},{"$numberDouble":"-47.446"}],"type":"Point"}}
{"_id":"pa:para:itaituba","uf":"pa","nome_estado":"pará","codigo_ibge":"1503606","nome_municipio":"itaituba","latitude":"-4.2667","longitude":"-55.9926","localizacao":{"coordinates":[{"$numberDouble":"-4.2667"},{"$numberDouble":"-55.9926"}],"type":"Point"}}
{"_id":"pa:para:itupiranga","uf":"pa","nome_estado":"pará","codigo_ibge":"1503705","nome_municipio":"itupiranga","latitude":"-5.13272","longitude":"-49.3358","localizacao":{"coordinates":[{"$numberDouble":"-5.13272"},{"$numberDouble":"-49.3358"}],"type":"Point"}}
{"_id":"pa:para:jacareacanga","uf":"pa","nome_estado":"pará","codigo_ibge":"1503754","nome_municipio":"jacareacanga","latitude":"-6.21469","longitude":"-57.7544","localizacao":{"coordinates":[{"$numberDouble":"-6.21469"},{"$numberDouble":"-57.7544"}],"type":"Point"}}
{"_id":"pa:para:jacunda","uf":"pa","nome_estado":"pará","codigo_ibge":"1503804","nome_municipio":"jacundá","latitude":"-4.44617","longitude":"-49.1153","localizacao":{"coordinates":[{"$numberDouble":"-4.44617"},{"$numberDouble":"-49.1153"}],"type":"Point"}}
{"_id":"pa:para:juruti","uf":"pa","nome_estado":"pará","codigo_ibge":"1503903","nome_municipio":"juruti","latitude":"-2.16347","longitude":"-56.0889","localizacao":{"coordinates":[{"$numberDouble":"-2.16347"},{"$numberDouble":"-56.0889"}],"type":"Point"}}
{"_id":"pa:para:limoeirodoajuru","uf":"pa","nome_estado":"pará","codigo_ibge":"1504000","nome_municipio":"limoeiro do ajuru","latitude":"-1.8985","longitude":"-49.3903","localizacao":{"coordinates":[{"$numberDouble":"-1.8985"},{"$numberDouble":"-49.3903"}],"type":"Point"}}
{"_id":"pa:para:maedorio","uf":"pa","nome_estado":"pará","codigo_ibge":"1504059","nome_municipio":"mãe do rio","latitude":"-2.05683","longitude":"-47.5601","localizacao":{"coordinates":[{"$numberDouble":"-2.05683"},{"$numberDouble":"-47.5601"}],"type":"Point"}}
{"_id":"pa:para:magalhaesbarata","uf":"pa","nome_estado":"pará","codigo_ibge":"1504109","nome_municipio":"magalhães barata","latitude":"-0.803391","longitude":"-47.6014","localizacao":{"coordinates":[{"$numberDouble":"-0.803391"},{"$numberDouble":"-47.6014"}],"type":"Point"}}
{"_id":"pa:para:maraba","uf":"pa","nome_estado":"pará","codigo_ibge":"1504208","nome_municipio":"marabá","latitude":"-5.38075","longitude":"-49.1327","localizacao":{"coordinates":[{"$numberDouble":"-5.38075"},{"$numberDouble":"-49.1327"}],"type":"Point"}}
{"_id":"pa:para:maracana","uf":"pa","nome_estado":"pará","codigo_ibge":"1504307","nome_municipio":"maracanã","latitude":"-0.778899","longitude":"-47.452","localizacao":{"coordinates":[{"$numberDouble":"-0.778899"},{"$numberDouble":"-47.452"}],"type":"Point"}}
{"_id":"pa:para:marapanim","uf":"pa","nome_estado":"pará","codigo_ibge":"1504406","nome_municipio":"marapanim","latitude":"-0.714702","longitude":"-47.7034","localizacao":{"coordinates":[{"$numberDouble":"-0.714702"},{"$numberDouble":"-47.7034"}],"type":"Point"}}
{"_id":"pa:para:marituba","uf":"pa","nome_estado":"pará","codigo_ibge":"1504422","nome_municipio":"marituba","latitude":"-1.36002","longitude":"-48.3421","localizacao":{"coordinates":[{"$numberDouble":"-1.36002"},{"$numberDouble":"-48.3421"}],"type":"Point"}}
{"_id":"pa:para:medicilandia","uf":"pa","nome_estado":"pará","codigo_ibge":"1504455","nome_municipio":"medicilândia","latitude":"-3.44637","longitude":"-52.8875","localizacao":{"coordinates":[{"$numberDouble":"-3.44637"},{"$numberDouble":"-52.8875"}],"type":"Point"}}
{"_id":"pa:para:melgaco","uf":"pa","nome_estado":"pará","codigo_ibge":"1504505","nome_municipio":"melgaço","latitude":"-1.8032","longitude":"-50.7149","localizacao":{"coordinates":[{"$numberDouble":"-1.8032"},{"$numberDouble":"-50.7149"}],"type":"Point"}}
{"_id":"pa:para:mocajuba","uf":"pa","nome_estado":"pará","codigo_ibge":"1504604","nome_municipio":"mocajuba","latitude":"-2.5831","longitude":"-49.5042","localizacao":{"coordinates":[{"$numberDouble":"-2.5831"},{"$numberDouble":"-49.5042"}],"type":"Point"}}
{"_id":"pa:para:moju","uf":"pa","nome_estado":"pará","codigo_ibge":"1504703","nome_municipio":"moju","latitude":"-1.88993","longitude":"-48.7668","localizacao":{"coordinates":[{"$numberDouble":"-1.88993"},{"$numberDouble":"-48.7668"}],"type":"Point"}}
{"_id":"pa:para:mojuidoscampos","uf":"pa","nome_estado":"pará","codigo_ibge":"1504752","nome_municipio":"mojuí dos campos","latitude":"-2.6822","longitude":"-54.6425","localizacao":{"coordinates":[{"$numberDouble":"-2.6822"},{"$numberDouble":"-54.6425"}],"type":"Point"}}
{"_id":"pa:para:montealegre","uf":"pa","nome_estado":"pará","codigo_ibge":"1504802","nome_municipio":"monte alegre","latitude":"-1.99768","longitude":"-54.0724","localizacao":{"coordinates":[{"$numberDouble":"-1.99768"},{"$numberDouble":"-54.0724"}],"type":"Point"}}
{"_id":"pa:para:muana","uf":"pa","nome_estado":"pará","codigo_ibge":"1504901","nome_municipio":"muaná","latitude":"-1.53936","longitude":"-49.2224","localizacao":{"coordinates":[{"$numberDouble":"-1.53936"},{"$numberDouble":"-49.2224"}],"type":"Point"}}
{"_id":"pa:para:novaesperancadopiria","uf":"pa","nome_estado":"pará","codigo_ibge":"1504950","nome_municipio":"nova esperança do piriá","latitude":"-2.26693","longitude":"-46.9731","localizacao":{"coordinates":[{"$numberDouble":"-2.26693"},{"$numberDouble":"-46.9731"}],"type":"Point"}}
{"_id":"pa:para:novaipixuna","uf":"pa","nome_estado":"pará","codigo_ibge":"1504976","nome_municipio":"nova ipixuna","latitude":"-4.91622","longitude":"-49.0822","localizacao":{"coordinates":[{"$numberDouble":"-4.91622"},{"$numberDouble":"-49.0822"}],"type":"Point"}}
{"_id":"pa:para:novatimboteua","uf":"pa","nome_estado":"pará","codigo_ibge":"1505007","nome_municipio":"nova timboteua","latitude":"-1.20874","longitude":"-47.3921","localizacao":{"coordinates":[{"$numberDouble":"-1.20874"},{"$numberDouble":"-47.3921"}],"type":"Point"}}
{"_id":"pa:para:novoprogresso","uf":"pa","nome_estado":"pará","codigo_ibge":"1505031","nome_municipio":"novo progresso","latitude":"-7.14347","longitude":"-55.3786","localizacao":{"coordinates":[{"$numberDouble":"-7.14347"},{"$numberDouble":"-55.3786"}],"type":"Point"}}
{"_id":"pa:para:novorepartimento","uf":"pa","nome_estado":"pará","codigo_ibge":"1505064","nome_municipio":"novo repartimento","latitude":"-4.24749","longitude":"-49.9499","localizacao":{"coordinates":[{"$numberDouble":"-4.24749"},{"$numberDouble":"-49.9499"}],"type":"Point"}}
{"_id":"pa:para:obidos","uf":"pa","nome_estado":"pará","codigo_ibge":"1505106","nome_municipio":"óbidos","latitude":"-1.90107","longitude":"-55.5208","localizacao":{"coordinates":[{"$numberDouble":"-1.90107"},{"$numberDouble":"-55.5208"}],"type":"Point"}}
{"_id":"pa:para:oeirasdopara","uf":"pa","nome_estado":"pará","codigo_ibge":"1505205","nome_municipio":"oeiras do pará","latitude":"-2.00358","longitude":"-49.8628","localizacao":{"coordinates":[{"$numberDouble":"-2.00358"},{"$numberDouble":"-49.8628"}],"type":"Point"}}
{"_id":"pa:para:oriximina","uf":"pa","nome_estado":"pará","codigo_ibge":"1505304","nome_municipio":"oriximiná","latitude":"-1.75989","longitude":"-55.8579","localizacao":{"coordinates":[{"$numberDouble":"-1.75989"},{"$numberDouble":"-55.8579"}],"type":"Point"}}
{"_id":"pa:para:ourem","uf":"pa","nome_estado":"pará","codigo_ibge":"1505403","nome_municipio":"ourém","latitude":"-1.54168","longitude":"-47.1126","localizacao":{"coordinates":[{"$numberDouble":"-1.54168"},{"$numberDouble":"-47.1126"}],"type":"Point"}}
{"_id":"pa:para:ourilandiadonorte","uf":"pa","nome_estado":"pará","codigo_ibge":"1505437","nome_municipio":"ourilândia do norte","latitude":"-6.7529","longitude":"-51.0858","localizacao":{"coordinates":[{"$numberDouble":"-6.7529"},{"$numberDouble":"-51.0858"}],"type":"Point"}}
{"_id":"pa:para:pacaja","uf":"pa","nome_estado":"pará","codigo_ibge":"1505486","nome_municipio":"pacajá","latitude":"-3.83542","longitude":"-50.6399","localizacao":{"coordinates":[{"$numberDouble":"-3.83542"},{"$numberDouble":"-50.6399"}],"type":"Point"}}
{"_id":"pa:para:palestinadopara","uf":"pa","nome_estado":"pará","codigo_ibge":"1505494","nome_municipio":"palestina do pará","latitude":"-5.74027","longitude":"-48.3181","localizacao":{"coordinates":[{"$numberDouble":"-5.74027"},{"$numberDouble":"-48.3181"}],"type":"Point"}}
{"_id":"pa:para:paragominas","uf":"pa","nome_estado":"pará","codigo_ibge":"1505502","nome_municipio":"paragominas","latitude":"-3.00212","longitude":"-47.3527","localizacao":{"coordinates":[{"$numberDouble":"-3.00212"},{"$numberDouble":"-47.3527"}],"type":"Point"}}
{"_id":"pa:para:parauapebas","uf":"pa","nome_estado":"pará","codigo_ibge":"1505536","nome_municipio":"parauapebas","latitude":"-6.06781","longitude":"-49.9037","localizacao":{"coordinates":[{"$numberDouble":"-6.06781"},{"$numberDouble":"-49.9037"}],"type":"Point"}}
{"_id":"pa:para:paudarco","uf":"pa","nome_estado":"pará","codigo_ibge":"1505551","nome_municipio":"pau d'arco","latitude":"-1.59772","longitude":"-46.9268","localizacao":{"coordinates":[{"$numberDouble":"-1.59772"},{"$numberDouble":"-46.9268"}],"type":"Point"}}
{"_id":"pa:para:peixe-boi","uf":"pa","nome_estado":"pará","codigo_ibge":"1505601","nome_municipio":"peixe-boi","latitude":"-1.19382","longitude":"-47.324","localizacao":{"coordinates":[{"$numberDouble":"-1.19382"},{"$numberDouble":"-47.324"}],"type":"Point"}}
{"_id":"pa:para:picarra","uf":"pa","nome_estado":"pará","codigo_ibge":"1505635","nome_municipio":"piçarra","latitude":"-6.43778","longitude":"-48.8716","localizacao":{"coordinates":[{"$numberDouble":"-6.43778"},{"$numberDouble":"-48.8716"}],"type":"Point"}}
{"_id":"pa:para:placas","uf":"pa","nome_estado":"pará","codigo_ibge":"1505650","nome_municipio":"placas","latitude":"-3.86813","longitude":"-54.2124","localizacao":{"coordinates":[{"$numberDouble":"-3.86813"},{"$numberDouble":"-54.2124"}],"type":"Point"}}
{"_id":"pa:para:pontadepedras","uf":"pa","nome_estado":"pará","codigo_ibge":"1505700","nome_municipio":"ponta de pedras","latitude":"-1.39587","longitude":"-48.8661","localizacao":{"coordinates":[{"$numberDouble":"-1.39587"},{"$numberDouble":"-48.8661"}],"type":"Point"}}
{"_id":"pa:para:portel","uf":"pa","nome_estado":"pará","codigo_ibge":"1505809","nome_municipio":"portel","latitude":"-1.93639","longitude":"-50.8194","localizacao":{"coordinates":[{"$numberDouble":"-1.93639"},{"$numberDouble":"-50.8194"}],"type":"Point"}}
{"_id":"pa:para:portodemoz","uf":"pa","nome_estado":"pará","codigo_ibge":"1505908","nome_municipio":"porto de moz","latitude":"-1.74691","longitude":"-52.2361","localizacao":{"coordinates":[{"$numberDouble":"-1.74691"},{"$numberDouble":"-52.2361"}],"type":"Point"}}
{"_id":"pa:para:prainha","uf":"pa","nome_estado":"pará","codigo_ibge":"1506005","nome_municipio":"prainha","latitude":"-1.798","longitude":"-53.4779","localizacao":{"coordinates":[{"$numberDouble":"-1.798"},{"$numberDouble":"-53.4779"}],"type":"Point"}}
{"_id":"pa:para:primavera","uf":"pa","nome_estado":"pará","codigo_ibge":"1506104","nome_municipio":"primavera","latitude":"-0.945439","longitude":"-47.1253","localizacao":{"coordinates":[{"$numberDouble":"-0.945439"},{"$numberDouble":"-47.1253"}],"type":"Point"}}
{"_id":"pa:para:quatipuru","uf":"pa","nome_estado":"pará","codigo_ibge":"1506112","nome_municipio":"quatipuru","latitude":"-0.899604","longitude":"-47.0134","localizacao":{"coordinates":[{"$numberDouble":"-0.899604"},{"$numberDouble":"-47.0134"}],"type":"Point"}}
{"_id":"pa:para:redencao","uf":"pa","nome_estado":"pará","codigo_ibge":"1506138","nome_municipio":"redenção","latitude":"-8.02529","longitude":"-50.0317","localizacao":{"coordinates":[{"$numberDouble":"-8.02529"},{"$numberDouble":"-50.0317"}],"type":"Point"}}
{"_id":"pa:para:riomaria","uf":"pa","nome_estado":"pará","codigo_ibge":"1506161","nome_municipio":"rio maria","latitude":"-7.31236","longitude":"-50.0379","localizacao":{"coordinates":[{"$numberDouble":"-7.31236"},{"$numberDouble":"-50.0379"}],"type":"Point"}}
{"_id":"pa:para:rondondopara","uf":"pa","nome_estado":"pará","codigo_ibge":"1506187","nome_municipio":"rondon do pará","latitude":"-4.77793","longitude":"-48.067","localizacao":{"coordinates":[{"$numberDouble":"-4.77793"},{"$numberDouble":"-48.067"}],"type":"Point"}}
{"_id":"pa:para:ruropolis","uf":"pa","nome_estado":"pará","codigo_ibge":"1506195","nome_municipio":"rurópolis","latitude":"-4.10028","longitude":"-54.9092","localizacao":{"coordinates":[{"$numberDouble":"-4.10028"},{"$numberDouble":"-54.9092"}],"type":"Point"}}
{"_id":"pa:para:salinopolis","uf":"pa","nome_estado":"pará","codigo_ibge":"1506203","nome_municipio":"salinópolis","latitude":"-0.630815","longitude":"-47.3465","localizacao":{"coordinates":[{"$numberDouble":"-0.630815"},{"$numberDouble":"-47.3465"}],"type":"Point"}}
{"_id":"pa:para:salvaterra","uf":"pa","nome_estado":"pará","codigo_ibge":"1506302","nome_municipio":"salvaterra","latitude":"-0.758444","longitude":"-48.5139","localizacao":{"coordinates":[{"$numberDouble":"-0.758444"},{"$numberDouble":"-48.5139"}],"type":"Point"}}
{"_id":"pa:para:santabarbaradopara","uf":"pa","nome_estado":"pará","codigo_ibge":"1506351","nome_municipio":"santa bárbara do pará","latitude":"-1.19219","longitude":"-48.238","localizacao":{"coordinates":[{"$numberDouble":"-1.19219"},{"$numberDouble":"-48.238"}],"type":"Point"}}
{"_id":"pa:para:santacruzdoarari","uf":"pa","nome_estado":"pará","codigo_ibge":"1506401","nome_municipio":"santa cruz do arari","latitude":"-0.661019","longitude":"-49.1771","localizacao":{"coordinates":[{"$numberDouble":"-0.661019"},{"$numberDouble":"-49.1771"}],"type":"Point"}}
{"_id":"pa:para:santaisabeldopara","uf":"pa","nome_estado":"pará","codigo_ibge":"1506500","nome_municipio":"santa isabel do pará","latitude":"-1.29686","longitude":"-48.1606","localizacao":{"coordinates":[{"$numberDouble":"-1.29686"},{"$numberDouble":"-48.1606"}],"type":"Point"}}
{"_id":"pa:para:santaluziadopara","uf":"pa","nome_estado":"pará","codigo_ibge":"1506559","nome_municipio":"santa luzia do pará","latitude":"-1.52147","longitude":"-46.9008","localizacao":{"coordinates":[{"$numberDouble":"-1.52147"},{"$numberDouble":"-46.9008"}],"type":"Point"}}
{"_id":"pa:para:santamariadasbarreiras","uf":"pa","nome_estado":"pará","codigo_ibge":"1506583","nome_municipio":"santa maria das barreiras","latitude":"-8.85784","longitude":"-49.7215","localizacao":{"coordinates":[{"$numberDouble":"-8.85784"},{"$numberDouble":"-49.7215"}],"type":"Point"}}
{"_id":"pa:para:santamariadopara","uf":"pa","nome_estado":"pará","codigo_ibge":"1506609","nome_municipio":"santa maria do pará","latitude":"-1.35392","longitude":"-47.5712","localizacao":{"coordinates":[{"$numberDouble":"-1.35392"},{"$numberDouble":"-47.5712"}],"type":"Point"}}
{"_id":"pa:para:santanadoaraguaia","uf":"pa","nome_estado":"pará","codigo_ibge":"1506708","nome_municipio":"santana do araguaia","latitude":"-9.3281","longitude":"-50.35","localizacao":{"coordinates":[{"$numberDouble":"-9.3281"},{"$numberDouble":"-50.35"}],"type":"Point"}}
{"_id":"pa:para:santarem","uf":"pa","nome_estado":"pará","codigo_ibge":"1506807","nome_municipio":"santarém","latitude":"-2.43849","longitude":"-54.6996","localizacao":{"coordinates":[{"$numberDouble":"-2.43849"},{"$numberDouble":"-54.6996"}],"type":"Point"}}
{"_id":"pa:para:santaremnovo","uf":"pa","nome_estado":"pará","codigo_ibge":"1506906","nome_municipio":"santarém novo","latitude":"-0.93097","longitude":"-47.3855","localizacao":{"coordinates":[{"$numberDouble":"-0.93097"},{"$numberDouble":"-47.3855"}],"type":"Point"}}
{"_id":"pa:para:santoantoniodotaua","uf":"pa","nome_estado":"pará","codigo_ibge":"1507003","nome_municipio":"santo antônio do tauá","latitude":"-1.1522","longitude":"-48.1314","localizacao":{"coordinates":[{"$numberDouble":"-1.1522"},{"$numberDouble":"-48.1314"}],"type":"Point"}}
{"_id":"pa:para:saocaetanodeodivelas","uf":"pa","nome_estado":"pará","codigo_ibge":"1507102","nome_municipio":"são caetano de odivelas","latitude":"-0.747293","longitude":"-48.0246","localizacao":{"coordinates":[{"$numberDouble":"-0.747293"},{"$numberDouble":"-48.0246"}],"type":"Point"}}
{"_id":"pa:para:saodomingosdoaraguaia","uf":"pa","nome_estado":"pará","codigo_ibge":"1507151","nome_municipio":"são domingos do araguaia","latitude":"-5.53732","longitude":"-48.7366","localizacao":{"coordinates":[{"$numberDouble":"-5.53732"},{"$numberDouble":"-48.7366"}],"type":"Point"}}
{"_id":"pa:para:saodomingosdocapim","uf":"pa","nome_estado":"pará","codigo_ibge":"1507201","nome_municipio":"são domingos do capim","latitude":"-1.68768","longitude":"-47.7665","localizacao":{"coordinates":[{"$numberDouble":"-1.68768"},{"$numberDouble":"-47.7665"}],"type":"Point"}}
{"_id":"pa:para:saofelixdoxingu","uf":"pa","nome_estado":"pará","codigo_ibge":"1507300","nome_municipio":"são félix do xingu","latitude":"-6.64254","longitude":"-51.9904","localizacao":{"coordinates":[{"$numberDouble":"-6.64254"},{"$numberDouble":"-51.9904"}],"type":"Point"}}
{"_id":"pa:para:saofranciscodopara","uf":"pa","nome_estado":"pará","codigo_ibge":"1507409","nome_municipio":"são francisco do pará","latitude":"-1.16963","longitude":"-47.7917","localizacao":{"coordinates":[{"$numberDouble":"-1.16963"},{"$numberDouble":"-47.7917"}],"type":"Point"}}
{"_id":"pa:para:saogeraldodoaraguaia","uf":"pa","nome_estado":"pará","codigo_ibge":"1507458","nome_municipio":"são geraldo do araguaia","latitude":"-6.39471","longitude":"-48.5592","localizacao":{"coordinates":[{"$numberDouble":"-6.39471"},{"$numberDouble":"-48.5592"}],"type":"Point"}}
{"_id":"pa:para:saojoaodaponta","uf":"pa","nome_estado":"pará","codigo_ibge":"1507466","nome_municipio":"são joão da ponta","latitude":"-0.857885","longitude":"-47.918","localizacao":{"coordinates":[{"$numberDouble":"-0.857885"},{"$numberDouble":"-47.918"}],"type":"Point"}}
{"_id":"pa:para:saojoaodepirabas","uf":"pa","nome_estado":"pará","codigo_ibge":"1507474","nome_municipio":"são joão de pirabas","latitude":"-0.780222","longitude":"-47.181","localizacao":{"coordinates":[{"$numberDouble":"-0.780222"},{"$numberDouble":"-47.181"}],"type":"Point"}}
{"_id":"pa:para:saojoaodoaraguaia","uf":"pa","nome_estado":"pará","codigo_ibge":"1507508","nome_municipio":"são joão do araguaia","latitude":"-5.36334","longitude":"-48.7926","localizacao":{"coordinates":[{"$numberDouble":"-5.36334"},{"$numberDouble":"-48.7926"}],"type":"Point"}}
{"_id":"pa:para:saomigueldoguama","uf":"pa","nome_estado":"pará","codigo_ibge":"1507607","nome_municipio":"são miguel do guamá","latitude":"-1.61307","longitude":"-47.4784","localizacao":{"coordinates":[{"$numberDouble":"-1.61307"},{"$numberDouble":"-47.4784"}],"type":"Point"}}
{"_id":"pa:para:saosebastiaodaboavista","uf":"pa","nome_estado":"pará","codigo_ibge":"1507706","nome_municipio":"são sebastião da boa vista","latitude":"-1.71597","longitude":"-49.5249","localizacao":{"coordinates":[{"$numberDouble":"-1.71597"},{"$numberDouble":"-49.5249"}],"type":"Point"}}
{"_id":"pa:para:sapucaia","uf":"pa","nome_estado":"pará","codigo_ibge":"1507755","nome_municipio":"sapucaia","latitude":"-6.94018","longitude":"-49.6834","localizacao":{"coordinates":[{"$numberDouble":"-6.94018"},{"$numberDouble":"-49.6834"}],"type":"Point"}}
{"_id":"pa:para:senadorjoseporfirio","uf":"pa","nome_estado":"pará","codigo_ibge":"1507805","nome_municipio":"senador josé porfírio","latitude":"-4.31242","longitude":"-51.5764","localizacao":{"coordinates":[{"$numberDouble":"-4.31242"},{"$numberDouble":"-51.5764"}],"type":"Point"}}
{"_id":"pa:para:soure","uf":"pa","nome_estado":"pará","codigo_ibge":"1507904","nome_municipio":"soure","latitude":"-0.73032","longitude":"-48.5015","localizacao":{"coordinates":[{"$numberDouble":"-0.73032"},{"$numberDouble":"-48.5015"}],"type":"Point"}}
{"_id":"pa:para:tailandia","uf":"pa","nome_estado":"pará","codigo_ibge":"1507953","nome_municipio":"tailândia","latitude":"-2.94584","longitude":"-48.9489","localizacao":{"coordinates":[{"$numberDouble":"-2.94584"},{"$numberDouble":"-48.9489"}],"type":"Point"}}
{"_id":"pa:para:terraalta","uf":"pa","nome_estado":"pará","codigo_ibge":"1507961","nome_municipio":"terra alta","latitude":"-1.02963","longitude":"-47.9004","localizacao":{"coordinates":[{"$numberDouble":"-1.02963"},{"$numberDouble":"-47.9004"}],"type":"Point"}}
{"_id":"pa:para:terrasanta","uf":"pa","nome_estado":"pará","codigo_ibge":"1507979","nome_municipio":"terra santa","latitude":"-2.10443","longitude":"-56.4877","localizacao":{"coordinates":[{"$numberDouble":"-2.10443"},{"$numberDouble":"-56.4877"}],"type":"Point"}}
{"_id":"pa:para:tome-acu","uf":"pa","nome_estado":"pará","codigo_ibge":"1508001","nome_municipio":"tomé-açu","latitude":"-2.41302","longitude":"-48.1415","localizacao":{"coordinates":[{"$numberDouble":"-2.41302"},{"$numberDouble":"-48.1415"}],"type":"Point"}}
{"_id":"pa:para:tracuateua","uf":"pa","nome_estado":"pará","codigo_ibge":"1508035","nome_municipio":"tracuateua","latitude":"-1.07653","longitude":"-46.9031","localizacao":{"coordinates":[{"$numberDouble":"-1.07653"},{"$numberDouble":"-46.9031"}],"type":"Point"}}
{"_id":"pa:para:trairao","uf":"pa","nome_estado":"pará","codigo_ibge":"1508050","nome_municipio":"trairão","latitude":"-4.57347","longitude":"-55.9429","localizacao":{"coordinates":[{"$numberDouble":"-4.57347"},{"$numberDouble":"-55.9429"}],"type":"Point"}}
{"_id":"pa:para:tucuma","uf":"pa","nome_estado":"pará","codigo_ibge":"1508084","nome_municipio":"tucumã","latitude":"-6.74687","longitude":"-51.1626","localizacao":{"coordinates":[{"$numberDouble":"-6.74687"},{"$numberDouble":"-51.1626"}],"type":"Point"}}
{"_id":"pa:para:tucurui","uf":"pa","nome_estado":"pará","codigo_ibge":"1508100","nome_municipio":"tucuruí","latitude":"-3.7657","longitude":"-49.6773","localizacao":{"coordinates":[{"$numberDouble":"-3.7657"},{"$numberDouble":"-49.6773"}],"type":"Point"}}
{"_id":"pa:para:ulianopolis","uf":"pa","nome_estado":"pará","codigo_ibge":"1508126","nome_municipio":"ulianópolis","latitude":"-3.75007","longitude":"-47.4892","localizacao":{"coordinates":[{"$numberDouble":"-3.75007"},{"$numberDouble":"-47.4892"}],"type":"Point"}}
{"_id":"pa:para:uruara","uf":"pa","nome_estado":"pará","codigo_ibge":"1508159","nome_municipio":"uruará","latitude":"-3.71519","longitude":"-53.7396","localizacao":{"coordinates":[{"$numberDouble":"-3.71519"},{"$numberDouble":"-53.7396"}],"type":"Point"}}
{"_id":"pa:para:vigia","uf":"pa","nome_estado":"pará","codigo_ibge":"1508209","nome_municipio":"vigia","latitude":"-0.861194","longitude":"-48.1386","localizacao":{"coordinates":[{"$numberDouble":"-0.861194"},{"$numberDouble":"-48.1386"}],"type":"Point"}}
{"_id":"pa:para:viseu","uf":"pa","nome_estado":"pará","codigo_ibge":"1508308","nome_municipio":"viseu","latitude":"-1.19124","longitude":"-46.1399","localizacao":{"coordinates":[{"$numberDouble":"-1.19124"},{"$numberDouble":"-46.1399"}],"type":"Point"}}
{"_id":"pa:para:vitoriadoxingu","uf":"pa","nome_estado":"pará","codigo_ibge":"1508357","nome_municipio":"vitória do xingu","latitude":"-2.87922","longitude":"-52.0088","localizacao":{"coordinates":[{"$numberDouble":"-2.87922"},{"$numberDouble":"-52.0088"}],"type":"Point"}}
{"_id":"pa:para:xinguara","uf":"pa","nome_estado":"pará","codigo_ibge":"1508407","nome_municipio":"xinguara","latitude":"-7.0983","longitude":"-49.9437","localizacao":{"coordinates":[{"$numberDouble":"-7.0983"},{"$numberDouble":"-49.9437"}],"type":"Point"}}
{"_id":"ap:amapa:serradonavio","uf":"ap","nome_estado":"amapá","codigo_ibge":"1600055","nome_municipio":"serra do navio","latitude":"0.901357","longitude":"-52.0036","localizacao":{"coordinates":[{"$numberDouble":"0.901357"},{"$numberDouble":"-52.0036"}],"type":"Point"}}
{"_id":"ap:amapa:amapa","uf":"ap","nome_estado":"amapá","codigo_ibge":"1600105","nome_municipio":"amapá","latitude":"2.05267","longitude":"-50.7957","localizacao":{"coordinates":[{"$numberDouble":"2.05267"},{"$numberDouble":"-50.7957"}],"type":"Point"}}
{"_id":"ap:amapa:pedrabrancadoamapari","uf":"ap","nome_estado":"amapá","codigo_ibge":"1600154","nome_municipio":"pedra branca do amapari","latitude":"0.777424","longitude":"-51.9503","localizacao":{"coordinates":[{"$numberDouble":"0.777424"},{"$numberDouble":"-51.9503"}],"type":"Point"}}
{"_id":"ap:amapa:calcoene","uf":"ap","nome_estado":"amapá","codigo_ibge":"1600204","nome_municipio":"calçoene","latitude":"2.50475","longitude":"-50.9512","localizacao":{"coordinates":[{"$numberDouble":"2.50475"},{"$numberDouble":"-50.9512"}],"type":"Point"}}
{"_id":"ap:amapa:cutias","uf":"ap","nome_estado":"amapá","codigo_ibge":"1600212","nome_municipio":"cutias","latitude":"0.970761","longitude":"-50.8005","localizacao":{"coordinates":[{"$numberDouble":"0.970761"},{"$numberDouble":"-50.8005"}],"type":"Point"}}
{"_id":"ap:amapa:ferreiragomes","uf":"ap","nome_estado":"amapá","codigo_ibge":"1600238","nome_municipio":"ferreira gomes","latitude":"0.857256","longitude":"-51.1795","localizacao":{"coordinates":[{"$numberDouble":"0.857256"},{"$numberDouble":"-51.1795"}],"type":"Point"}}
{"_id":"ap:amapa:itaubal","uf":"ap","nome_estado":"amapá","codigo_ibge":"1600253","nome_municipio":"itaubal","latitude":"0.602185","longitude":"-50.6996","localizacao":{"coordinates":[{"$numberDouble":"0.602185"},{"$numberDouble":"-50.6996"}],"type":"Point"}}
{"_id":"ap:amapa:laranjaldojari","uf":"ap","nome_estado":"amapá","codigo_ibge":"1600279","nome_municipio":"laranjal do jari","latitude":"-0.804911","longitude":"-52.453","localizacao":{"coordinates":[{"$numberDouble":"-0.804911"},{"$numberDouble":"-52.453"}],"type":"Point"}}
{"_id":"ap:amapa:macapa","uf":"ap","nome_estado":"amapá","codigo_ibge":"1600303","nome_municipio":"macapá","latitude":"0.034934","longitude":"-51.0694","localizacao":{"coordinates":[{"$numberDouble":"0.034934"},{"$numberDouble":"-51.0694"}],"type":"Point"}}
{"_id":"ap:amapa:mazagao","uf":"ap","nome_estado":"amapá","codigo_ibge":"1600402","nome_municipio":"mazagão","latitude":"-0.11336","longitude":"-51.2891","localizacao":{"coordinates":[{"$numberDouble":"-0.11336"},{"$numberDouble":"-51.2891"}],"type":"Point"}}
{"_id":"ap:amapa:oiapoque","uf":"ap","nome_estado":"amapá","codigo_ibge":"1600501","nome_municipio":"oiapoque","latitude":"3.84074","longitude":"-51.8331","localizacao":{"coordinates":[{"$numberDouble":"3.84074"},{"$numberDouble":"-51.8331"}],"type":"Point"}}
{"_id":"ap:amapa:portogrande","uf":"ap","nome_estado":"amapá","codigo_ibge":"1600535","nome_municipio":"porto grande","latitude":"0.71243","longitude":"-51.4155","localizacao":{"coordinates":[{"$numberDouble":"0.71243"},{"$numberDouble":"-51.4155"}],"type":"Point"}}
{"_id":"ap:amapa:pracuuba","uf":"ap","nome_estado":"amapá","codigo_ibge":"1600550","nome_municipio":"pracuúba","latitude":"1.74543","longitude":"-50.7892","localizacao":{"coordinates":[{"$numberDouble":"1.74543"},{"$numberDouble":"-50.7892"}],"type":"Point"}}
{"_id":"ap:amapa:santana","uf":"ap","nome_estado":"amapá","codigo_ibge":"1600600","nome_municipio":"santana","latitude":"-0.045434","longitude":"-51.1729","localizacao":{"coordinates":[{"$numberDouble":"-0.045434"},{"$numberDouble":"-51.1729"}],"type":"Point"}}
{"_id":"ap:amapa:tartarugalzinho","uf":"ap","nome_estado":"amapá","codigo_ibge":"1600709","nome_municipio":"tartarugalzinho","latitude":"1.50652","longitude":"-50.9087","localizacao":{"coordinates":[{"$numberDouble":"1.50652"},{"$numberDouble":"-50.9087"}],"type":"Point"}}
{"_id":"ap:amapa:vitoriadojari","uf":"ap","nome_estado":"amapá","codigo_ibge":"1600808","nome_municipio":"vitória do jari","latitude":"-0.938","longitude":"-52.424","localizacao":{"coordinates":[{"$numberDouble":"-0.938"},{"$numberDouble":"-52.424"}],"type":"Point"}}
{"_id":"to:tocantins:abreulandia","uf":"to","nome_estado":"tocantins","codigo_ibge":"1700251","nome_municipio":"abreulândia","latitude":"-9.62101","longitude":"-49.1518","localizacao":{"coordinates":[{"$numberDouble":"-9.62101"},{"$numberDouble":"-49.1518"}],"type":"Point"}}
{"_id":"to:tocantins:aguiarnopolis","uf":"to","nome_estado":"tocantins","codigo_ibge":"1700301","nome_municipio":"aguiarnópolis","latitude":"-6.55409","longitude":"-47.4702","localizacao":{"coordinates":[{"$numberDouble":"-6.55409"},{"$numberDouble":"-47.4702"}],"type":"Point"}}
{"_id":"to:tocantins:aliancadotocantins","uf":"to","nome_estado":"tocantins","codigo_ibge":"1700350","nome_municipio":"aliança do tocantins","latitude":"-11.3056","longitude":"-48.9361","localizacao":{"coordinates":[{"$numberDouble":"-11.3056"},{"$numberDouble":"-48.9361"}],"type":"Point"}}
{"_id":"to:tocantins:almas","uf":"to","nome_estado":"tocantins","codigo_ibge":"1700400","nome_municipio":"almas","latitude":"-11.5706","longitude":"-47.1792","localizacao":{"coordinates":[{"$numberDouble":"-11.5706"},{"$numberDouble":"-47.1792"}],"type":"Point"}}
{"_id":"to:tocantins:alvorada","uf":"to","nome_estado":"tocantins","codigo_ibge":"1700707","nome_municipio":"alvorada","latitude":"-12.4785","longitude":"-49.1249","localizacao":{"coordinates":[{"$numberDouble":"-12.4785"},{"$numberDouble":"-49.1249"}],"type":"Point"}}
{"_id":"to:tocantins:ananas","uf":"to","nome_estado":"tocantins","codigo_ibge":"1701002","nome_municipio":"ananás","latitude":"-6.36437","longitude":"-48.0735","localizacao":{"coordinates":[{"$numberDouble":"-6.36437"},{"$numberDouble":"-48.0735"}],"type":"Point"}}
{"_id":"to:tocantins:angico","uf":"to","nome_estado":"tocantins","codigo_ibge":"1701051","nome_municipio":"angico","latitude":"-6.39179","longitude":"-47.8611","localizacao":{"coordinates":[{"$numberDouble":"-6.39179"},{"$numberDouble":"-47.8611"}],"type":"Point"}}
{"_id":"to:tocantins:aparecidadorionegro","uf":"to","nome_estado":"tocantins","codigo_ibge":"1701101","nome_municipio":"aparecida do rio negro","latitude":"-9.94139","longitude":"-47.9638","localizacao":{"coordinates":[{"$numberDouble":"-9.94139"},{"$numberDouble":"-47.9638"}],"type":"Point"}}
{"_id":"to:tocantins:aragominas","uf":"to","nome_estado":"tocantins","codigo_ibge":"1701309","nome_municipio":"aragominas","latitude":"-7.16005","longitude":"-48.5291","localizacao":{"coordinates":[{"$numberDouble":"-7.16005"},{"$numberDouble":"-48.5291"}],"type":"Point"}}
{"_id":"to:tocantins:araguacema","uf":"to","nome_estado":"tocantins","codigo_ibge":"1701903","nome_municipio":"araguacema","latitude":"-8.80755","longitude":"-49.5569","localizacao":{"coordinates":[{"$numberDouble":"-8.80755"},{"$numberDouble":"-49.5569"}],"type":"Point"}}
{"_id":"to:tocantins:araguacu","uf":"to","nome_estado":"tocantins","codigo_ibge":"1702000","nome_municipio":"araguaçu","latitude":"-12.9289","longitude":"-49.8231","localizacao":{"coordinates":[{"$numberDouble":"-12.9289"},{"$numberDouble":"-49.8231"}],"type":"Point"}}
{"_id":"to:tocantins:araguaina","uf":"to","nome_estado":"tocantins","codigo_ibge":"1702109","nome_municipio":"araguaína","latitude":"-7.19238","longitude":"-48.2044","localizacao":{"coordinates":[{"$numberDouble":"-7.19238"},{"$numberDouble":"-48.2044"}],"type":"Point"}}
{"_id":"to:tocantins:araguana","uf":"to","nome_estado":"tocantins","codigo_ibge":"1702158","nome_municipio":"araguanã","latitude":"-6.58225","longitude":"-48.6395","localizacao":{"coordinates":[{"$numberDouble":"-6.58225"},{"$numberDouble":"-48.6395"}],"type":"Point"}}
{"_id":"to:tocantins:araguatins","uf":"to","nome_estado":"tocantins","codigo_ibge":"1702208","nome_municipio":"araguatins","latitude":"-5.64659","longitude":"-48.1232","localizacao":{"coordinates":[{"$numberDouble":"-5.64659"},{"$numberDouble":"-48.1232"}],"type":"Point"}}
{"_id":"to:tocantins:arapoema","uf":"to","nome_estado":"tocantins","codigo_ibge":"1702307","nome_municipio":"arapoema","latitude":"-7.65463","longitude":"-49.0637","localizacao":{"coordinates":[{"$numberDouble":"-7.65463"},{"$numberDouble":"-49.0637"}],"type":"Point"}}
{"_id":"to:tocantins:arraias","uf":"to","nome_estado":"tocantins","codigo_ibge":"1702406","nome_municipio":"arraias","latitude":"-12.9287","longitude":"-46.9359","localizacao":{"coordinates":[{"$numberDouble":"-12.9287"},{"$numberDouble":"-46.9359"}],"type":"Point"}}
{"_id":"to:tocantins:augustinopolis","uf":"to","nome_estado":"tocantins","codigo_ibge":"1702554","nome_municipio":"augustinópolis","latitude":"-5.46863","longitude":"-47.8863","localizacao":{"coordinates":[{"$numberDouble":"-5.46863"},{"$numberDouble":"-47.8863"}],"type":"Point"}}
{"_id":"to:tocantins:auroradotocantins","uf":"to","nome_estado":"tocantins","codigo_ibge":"1702703","nome_municipio":"aurora do tocantins","latitude":"-12.7105","longitude":"-46.4076","localizacao":{"coordinates":[{"$numberDouble":"-12.7105"},{"$numberDouble":"-46.4076"}],"type":"Point"}}
{"_id":"to:tocantins:axixadotocantins","uf":"to","nome_estado":"tocantins","codigo_ibge":"1702901","nome_municipio":"axixá do tocantins","latitude":"-5.61275","longitude":"-47.7701","localizacao":{"coordinates":[{"$numberDouble":"-5.61275"},{"$numberDouble":"-47.7701"}],"type":"Point"}}
{"_id":"to:tocantins:babaculandia","uf":"to","nome_estado":"tocantins","codigo_ibge":"1703008","nome_municipio":"babaçulândia","latitude":"-7.20923","longitude":"-47.7613","localizacao":{"coordinates":[{"$numberDouble":"-7.20923"},{"$numberDouble":"-47.7613"}],"type":"Point"}}
{"_id":"to:tocantins:bandeirantesdotocantins","uf":"to","nome_estado":"tocantins","codigo_ibge":"1703057","nome_municipio":"bandeirantes do tocantins","latitude":"-7.75612","longitude":"-48.5836","localizacao":{"coordinates":[{"$numberDouble":"-7.75612"},{"$numberDouble":"-48.5836"}],"type":"Point"}}
{"_id":"to:tocantins:barradoouro","uf":"to","nome_estado":"tocantins","codigo_ibge":"1703073","nome_municipio":"barra do ouro","latitude":"-7.69593","longitude":"-47.6776","localizacao":{"coordinates":[{"$numberDouble":"-7.69593"},{"$numberDouble":"-47.6776"}],"type":"Point"}}
{"_id":"to:tocantins:barrolandia","uf":"to","nome_estado":"tocantins","codigo_ibge":"1703107","nome_municipio":"barrolândia","latitude":"-9.83404","longitude":"-48.7252","localizacao":{"coordinates":[{"$numberDouble":"-9.83404"},{"$numberDouble":"-48.7252"}],"type":"Point"}}
{"_id":"to:tocantins:bernardosayao","uf":"to","nome_estado":"tocantins","codigo_ibge":"1703206","nome_municipio":"bernardo sayão","latitude":"-7.87481","longitude":"-48.8893","localizacao":{"coordinates":[{"$numberDouble":"-7.87481"},{"$numberDouble":"-48.8893"}],"type":"Point"}}
{"_id":"to:tocantins:bomjesusdotocantins","uf":"to","nome_estado":"tocantins","codigo_ibge":"1703305","nome_municipio":"bom jesus do tocantins","latitude":"-8.96306","longitude":"-48.165","localizacao":{"coordinates":[{"$numberDouble":"-8.96306"},{"$numberDouble":"-48.165"}],"type":"Point"}}
{"_id":"to:tocantins:brasilandiadotocantins","uf":"to","nome_estado":"tocantins","codigo_ibge":"1703602","nome_municipio":"brasilândia do tocantins","latitude":"-8.38918","longitude":"-48.4822","localizacao":{"coordinates":[{"$numberDouble":"-8.38918"},{"$numberDouble":"-48.4822"}],"type":"Point"}}
{"_id":"to:tocantins:brejinhodenazare","uf":"to","nome_estado":"tocantins","codigo_ibge":"1703701","nome_municipio":"brejinho de nazaré","latitude":"-11.0058","longitude":"-48.5683","localizacao":{"coordinates":[{"$numberDouble":"-11.0058"},{"$numberDouble":"-48.5683"}],"type":"Point"}}
{"_id":"to:tocantins:buritidotocantins","uf":"to","nome_estado":"tocantins","codigo_ibge":"1703800","nome_municipio":"buriti do tocantins","latitude":"-5.31448","longitude":"-48.2271","localizacao":{"coordinates":[{"$numberDouble":"-5.31448"},{"$numberDouble":"-48.2271"}],"type":"Point"}}
{"_id":"to:tocantins:cachoeirinha","uf":"to","nome_estado":"tocantins","codigo_ibge":"1703826","nome_municipio":"cachoeirinha","latitude":"-6.1156","longitude":"-47.9234","localizacao":{"coordinates":[{"$numberDouble":"-6.1156"},{"$numberDouble":"-47.9234"}],"type":"Point"}}
{"_id":"to:tocantins:camposlindos","uf":"to","nome_estado":"tocantins","codigo_ibge":"1703842","nome_municipio":"campos lindos","latitude":"-7.98956","longitude":"-46.8645","localizacao":{"coordinates":[{"$numberDouble":"-7.98956"},{"$numberDouble":"-46.8645"}],"type":"Point"}}
{"_id":"to:tocantins:cariridotocantins","uf":"to","nome_estado":"tocantins","codigo_ibge":"1703867","nome_municipio":"cariri do tocantins","latitude":"-11.8881","longitude":"-49.1609","localizacao":{"coordinates":[{"$numberDouble":"-11.8881"},{"$numberDouble":"-49.1609"}],"type":"Point"}}
{"_id":"to:tocantins:carmolandia","uf":"to","nome_estado":"tocantins","codigo_ibge":"1703883","nome_municipio":"carmolândia","latitude":"-7.03262","longitude":"-48.3978","localizacao":{"coordinates":[{"$numberDouble":"-7.03262"},{"$numberDouble":"-48.3978"}],"type":"Point"}}
{"_id":"to:tocantins:carrascobonito","uf":"to","nome_estado":"tocantins","codigo_ibge":"1703891","nome_municipio":"carrasco bonito","latitude":"-5.31415","longitude":"-48.0314","localizacao":{"coordinates":[{"$numberDouble":"-5.31415"},{"$numberDouble":"-48.0314"}],"type":"Point"}}
{"_id":"to:tocantins:caseara","uf":"to","nome_estado":"tocantins","codigo_ibge":"1703909","nome_municipio":"caseara","latitude":"-9.27612","longitude":"-49.9521","localizacao":{"coordinates":[{"$numberDouble":"-9.27612"},{"$numberDouble":"-49.9521"}],"type":"Point"}}
{"_id":"to:tocantins:centenario","uf":"to","nome_estado":"tocantins","codigo_ibge":"1704105","nome_municipio":"centenário","latitude":"-8.96103","longitude":"-47.3304","localizacao":{"coordinates":[{"$numberDouble":"-8.96103"},{"$numberDouble":"-47.3304"}],"type":"Point"}}
{"_id":"to:tocantins:chapadadeareia","uf":"to","nome_estado":"tocantins","codigo_ibge":"1704600","nome_municipio":"chapada de areia","latitude":"-10.1419","longitude":"-49.1403","localizacao":{"coordinates":[{"$numberDouble":"-10.1419"},{"$numberDouble":"-49.1403"}],"type":"Point"}}
{"_id":"to:tocantins:chapadadanatividade","uf":"to","nome_estado":"tocantins","codigo_ibge":"1705102","nome_municipio":"chapada da natividade","latitude":"-11.6175","longitude":"-47.7486","localizacao":{"coordinates":[{"$numberDouble":"-11.6175"},{"$numberDouble":"-47.7486"}],"type":"Point"}}
{"_id":"to:tocantins:colinasdotocantins","uf":"to","nome_estado":"tocantins","codigo_ibge":"1705508","nome_municipio":"colinas do tocantins","latitude":"-8.05764","longitude":"-48.4757","localizacao":{"coordinates":[{"$numberDouble":"-8.05764"},{"$numberDouble":"-48.4757"}],"type":"Point"}}
{"_id":"to:tocantins:combinado","uf":"to","nome_estado":"tocantins","codigo_ibge":"1705557","nome_municipio":"combinado","latitude":"-12.7917","longitude":"-46.5388","localizacao":{"coordinates":[{"$numberDouble":"-12.7917"},{"$numberDouble":"-46.5388"}],"type":"Point"}}
{"_id":"to:tocantins:conceicaodotocantins","uf":"to","nome_estado":"tocantins","codigo_ibge":"1705607","nome_municipio":"conceição do tocantins","latitude":"-12.2209","longitude":"-47.2951","localizacao":{"coordinates":[{"$numberDouble":"-12.2209"},{"$numberDouble":"-47.2951"}],"type":"Point"}}
{"_id":"to:tocantins:coutodemagalhaes","uf":"to","nome_estado":"tocantins","codigo_ibge":"1706001","nome_municipio":"couto de magalhães","latitude":"-8.28411","longitude":"-49.2473","localizacao":{"coordinates":[{"$numberDouble":"-8.28411"},{"$numberDouble":"-49.2473"}],"type":"Point"}}
{"_id":"to:tocantins:cristalandia","uf":"to","nome_estado":"tocantins","codigo_ibge":"1706100","nome_municipio":"cristalândia","latitude":"-10.5985","longitude":"-49.1942","localizacao":{"coordinates":[{"$numberDouble":"-10.5985"},{"$numberDouble":"-49.1942"}],"type":"Point"}}
{"_id":"to:tocantins:crixasdotocantins","uf":"to","nome_estado":"tocantins","codigo_ibge":"1706258","nome_municipio":"crixás do tocantins","latitude":"-11.0994","longitude":"-48.9152","localizacao":{"coordinates":[{"$numberDouble":"-11.0994"},{"$numberDouble":"-48.9152"}],"type":"Point"}}
{"_id":"to:tocantins:darcinopolis","uf":"to","nome_estado":"tocantins","codigo_ibge":"1706506","nome_municipio":"darcinópolis","latitude":"-6.71591","longitude":"-47.7597","localizacao":{"coordinates":[{"$numberDouble":"-6.71591"},{"$numberDouble":"-47.7597"}],"type":"Point"}}
{"_id":"to:tocantins:dianopolis","uf":"to","nome_estado":"tocantins","codigo_ibge":"1707009","nome_municipio":"dianópolis","latitude":"-11.624","longitude":"-46.8198","localizacao":{"coordinates":[{"$numberDouble":"-11.624"},{"$numberDouble":"-46.8198"}],"type":"Point"}}
{"_id":"to:tocantins:divinopolisdotocantins","uf":"to","nome_estado":"tocantins","codigo_ibge":"1707108","nome_municipio":"divinópolis do tocantins","latitude":"-9.80018","longitude":"-49.2169","localizacao":{"coordinates":[{"$numberDouble":"-9.80018"},{"$numberDouble":"-49.2169"}],"type":"Point"}}
{"_id":"to:tocantins:doisirmaosdotocantins","uf":"to","nome_estado":"tocantins","codigo_ibge":"1707207","nome_municipio":"dois irmãos do tocantins","latitude":"-9.25534","longitude":"-49.0638","localizacao":{"coordinates":[{"$numberDouble":"-9.25534"},{"$numberDouble":"-49.0638"}],"type":"Point"}}
{"_id":"to:tocantins:duere","uf":"to","nome_estado":"tocantins","codigo_ibge":"1707306","nome_municipio":"dueré","latitude":"-11.3416","longitude":"-49.2716","localizacao":{"coordinates":[{"$numberDouble":"-11.3416"},{"$numberDouble":"-49.2716"}],"type":"Point"}}
{"_id":"to:tocantins:esperantina","uf":"to","nome_estado":"tocantins","codigo_ibge":"1707405","nome_municipio":"esperantina","latitude":"-5.36593","longitude":"-48.5378","localizacao":{"coordinates":[{"$numberDouble":"-5.36593"},{"$numberDouble":"-48.5378"}],"type":"Point"}}
{"_id":"to:tocantins:fatima","uf":"to","nome_estado":"tocantins","codigo_ibge":"1707553","nome_municipio":"fátima","latitude":"-10.7603","longitude":"-48.9076","localizacao":{"coordinates":[{"$numberDouble":"-10.7603"},{"$numberDouble":"-48.9076"}],"type":"Point"}}
{"_id":"to:tocantins:figueiropolis","uf":"to","nome_estado":"tocantins","codigo_ibge":"1707652","nome_municipio":"figueirópolis","latitude":"-12.1312","longitude":"-49.1748","localizacao":{"coordinates":[{"$numberDouble":"-12.1312"},{"$numberDouble":"-49.1748"}],"type":"Point"}}
{"_id":"to:tocantins:filadelfia","uf":"to","nome_estado":"tocantins","codigo_ibge":"1707702","nome_municipio":"filadélfia","latitude":"-7.33501","longitude":"-47.4954","localizacao":{"coordinates":[{"$numberDouble":"-7.33501"},{"$numberDouble":"-47.4954"}],"type":"Point"}}
{"_id":"to:tocantins:formosodoaraguaia","uf":"to","nome_estado":"tocantins","codigo_ibge":"1708205","nome_municipio":"formoso do araguaia","latitude":"-11.7976","longitude":"-49.5316","localizacao":{"coordinates":[{"$numberDouble":"-11.7976"},{"$numberDouble":"-49.5316"}],"type":"Point"}}
{"_id":"to:tocantins:fortalezadotabocao","uf":"to","nome_estado":"tocantins","codigo_ibge":"1708254","nome_municipio":"fortaleza do tabocão","latitude":"-9.05611","longitude":"-48.5206","localizacao":{"coordinates":[{"$numberDouble":"-9.05611"},{"$numberDouble":"-48.5206"}],"type":"Point"}}
{"_id":"to:tocantins:goianorte","uf":"to","nome_estado":"tocantins","codigo_ibge":"1708304","nome_municipio":"goianorte","latitude":"-8.77413","longitude":"-48.9313","localizacao":{"coordinates":[{"$numberDouble":"-8.77413"},{"$numberDouble":"-48.9313"}],"type":"Point"}}
{"_id":"to:tocantins:goiatins","uf":"to","nome_estado":"tocantins","codigo_ibge":"1709005","nome_municipio":"goiatins","latitude":"-7.71478","longitude":"-47.3252","localizacao":{"coordinates":[{"$numberDouble":"-7.71478"},{"$numberDouble":"-47.3252"}],"type":"Point"}}
{"_id":"to:tocantins:guarai","uf":"to","nome_estado":"tocantins","codigo_ibge":"1709302","nome_municipio":"guaraí","latitude":"-8.83543","longitude":"-48.5114","localizacao":{"coordinates":[{"$numberDouble":"-8.83543"},{"$numberDouble":"-48.5114"}],"type":"Point"}}
{"_id":"to:tocantins:gurupi","uf":"to","nome_estado":"tocantins","codigo_ibge":"1709500","nome_municipio":"gurupi","latitude":"-11.7279","longitude":"-49.068","localizacao":{"coordinates":[{"$numberDouble":"-11.7279"},